"locator_domain","page_url","location_name","street_address","city","state","zip","country_code","store_number","phone","location_type","latitude","longitude","hours_of_operation"
"https://www.sunoco.com","https://www.sunoco.com/find-a-station/station/69682","Sunoco Retail Location #69682","14TH & GROVE STREETS","JERSEY CITY","NJ","07302","US","69682","2014922156","Sunoco Gas Stations","40.731439","-74.040788","24hrs"
"https://www.sunoco.com","https://www.sunoco.com/find-a-station/station/69351","Sunoco Retail Location #69351","14TH ST. & JERSEY AVE","JERSEY CITY","NJ","07302","US","69351","2013869490","Sunoco Gas Stations","40.732171","-74.044083","24hrs"
"https://www.sunoco.com","https://www.sunoco.com/find-a-station/station/69583","Sunoco Retail Location #69583","465 GRAND AVENUE","JERSEY CITY","NJ","07302","US","69583","2014511330","Sunoco Gas Stations","40.71732","-74.05488","24hrs"
"https://www.sunoco.com","https://www.sunoco.com/find-a-station/station/2721835","Sunoco Retail Location #2721835","1301 WILLOW STREET","HOBOKEN","NJ","07030","US","2721835","2016594965","Sunoco Gas Stations","40.75312","-74.029623","24hrs"
"https://www.sunoco.com","https://www.sunoco.com/find-a-station/station/5866330","Sunoco Retail Location #5866330","538 3RD AVENUE","BROOKLYN","NY","11215","US","5866330","7184999768","Sunoco Gas Stations","40.669042","-73.9935369","24hrs"
"https://www.sunoco.com","https://www.sunoco.com/find-a-station/station/69112","Sunoco Retail Location #69112","470 COMMUNIPAW AVE","JERSEY CITY","NJ","07304","US","69112","7184205100","Sunoco Gas Stations","40.714785","-74.06696","06:00-24:00"
"https://www.sunoco.com","https://www.sunoco.com/find-a-station/station/5304027","Sunoco Retail Location #5304027","941 ATLANTIC AVENUE","BROOKLYN","NY","11238","US","5304027","9292878322","Sunoco Gas Stations","40.68062","-73.96145","24hrs"
"https://www.sunoco.com","https://www.sunoco.com/find-a-station/station/7325285","Sunoco Retail Location #7325285","497 MEEKER AVE","BROOKLYN","NY","11222","US","7325285","7183892729","Sunoco Gas Stations","40.72029","-73.9443","24hrs"
"https://www.sunoco.com","https://www.sunoco.com/find-a-station/station/2794808","Sunoco Retail Location #2794808","668 3RD AVENUE","BROOKLYN","NY","11232","US","2794808","7183692072","Sunoco Gas Stations","40.66449","-73.997655","06:00-23:00"
"https://www.sunoco.com","https://www.sunoco.com/find-a-station/station/6786164","Sunoco Retail Location #6786164","362 TONNELE AVENUE","JERSEY CITY","NJ","07306","US","6786164","<MISSING>","Sunoco Gas Stations","40.743608","-74.062577","24hrs"
"https://www.sunoco.com","https://www.sunoco.com/find-a-station/station/493973","Sunoco Retail Location #493973","53 BROADWAY","JERSEY CITY","NJ","07306","US","493973","2013335480","Sunoco Gas Stations","40.73561","-74.07008","24hrs"
"https://www.sunoco.com","https://www.sunoco.com/find-a-station/station/5131099","Sunoco Retail Location #5131099","720 TONNELLE AVENUE","JERSEY CITY","NJ","07307","US","5131099","9176819695","Sunoco Gas Stations","40.75463","-74.0556153","24hrs"
"https://www.sunoco.com","https://www.sunoco.com/find-a-station/station/1314012","Sunoco Retail Location #1314012","1188 METROPOLITAN AVENUE","BROOKLYN","NY","11237","US","1314012","7183660949","Sunoco Gas Stations","40.714087","-73.929642","06:00-22:00"
"https://www.sunoco.com","https://www.sunoco.com/find-a-station/station/8120594","Sunoco Retail Location #8120594","3200 KENNEDY BLVD","UNION CITY","NJ","07087","US","8120594","<MISSING>","Sunoco Gas Stations","40.774897","-74.0311069","24hrs"
"https://www.sunoco.com","https://www.sunoco.com/find-a-station/station/6547202","Sunoco Retail Location #6547202","1884 FLUSHING AVENUE","RIDGEWOOD","NY","11385","US","6547202","7184178022","Sunoco Gas Stations","40.712264","-73.9187904","24hrs"
"https://www.sunoco.com","https://www.sunoco.com/find-a-station/station/3683042","Sunoco Retail Location #3683042","ULTRA CONV FOOD CENTER MILEPOST 111.6 NJ TPK","SECAUCUS","NJ","07094","US","3683042","2013480656","Sunoco Gas Stations","40.769476","-74.065112","24hrs"
"https://www.sunoco.com","https://www.sunoco.com/find-a-station/station/71738","Sunoco Retail Location #71738","CENTER INC 6102 4TH AVE & 61ST STREET","BROOKLYN","NY","11220","US","71738","7184390073","Sunoco Gas Stations","40.64027","-74.01906","24hrs"
"https://www.sunoco.com","https://www.sunoco.com/find-a-station/station/5267935","Sunoco Retail Location #5267935","1505 KENNEDY BLVD","JERSEY CITY","NJ","07305","US","5267935","2014512233","Sunoco Gas Stations","40.693594","-74.101575","24hrs"
"https://www.sunoco.com","https://www.sunoco.com/find-a-station/station/4172748","Sunoco Retail Location #4172748","1412 EASTERN PARKWAY","BROOKLYN","NY","11233","US","4172748","7184670485","Sunoco Gas Stations","40.668669","-73.921513","24hrs"
"https://www.sunoco.com","https://www.sunoco.com/find-a-station/station/71332","Sunoco Retail Location #71332","805 65TH STREET & 8TH AVENUE","BROOKLYN","NY","11220","US","71332","<MISSING>","Sunoco Gas Stations","40.63257","-74.01249","24hrs"
"https://www.sunoco.com","https://www.sunoco.com/find-a-station/station/6994149","Sunoco Retail Location #6994149","32 HIGHLAND BLVD","BROOKLYN","NY","11207","US","6994149","3472409102","Sunoco Gas Stations","40.67957","-73.89975","24hrs"
"https://www.sunoco.com","https://www.sunoco.com/find-a-station/station/66415","Sunoco Retail Location #66415","249 ROUTE 3 EAST","SECAUCUS","NJ","07094","US","66415","<MISSING>","Sunoco Gas Stations","40.792145","-74.056068","24hrs"
"https://www.sunoco.com","https://www.sunoco.com/find-a-station/station/5465729","Sunoco Retail Location #5465729","6307 BROADWAY","QUEENS","NY","11377","US","5465729","<MISSING>","Sunoco Gas Stations","40.749967","-73.8990752","24hrs"
"https://www.sunoco.com","https://www.sunoco.com/find-a-station/station/71647","Sunoco Retail Location #71647","AVENUE I SERVICE STATION  INC 1248 CONEY ISLAND AVENUE","BROOKLYN","NY","11230","US","71647","7189511818","Sunoco Gas Stations","40.627386","-73.965922","24hrs"
"https://www.sunoco.com","https://www.sunoco.com/find-a-station/station/72272","Sunoco Retail Location #72272","72-02 ROOSEVELT AVENUE","JACKSON HEIGHTS","NY","11372","US","72272","7184249714","Sunoco Gas Stations","40.746531","-73.893177","24hrs"
"https://www.sunoco.com","https://www.sunoco.com/find-a-station/station/9233248","Sunoco Retail Location #9233248","40-13 ASTORIA BLVD","ASTORIA","NY","11105","US","9233248","7182042014","Sunoco Gas Stations","40.769496","-73.909786","24hrs"
"https://www.sunoco.com","https://www.sunoco.com/find-a-station/station/4374286","Sunoco Retail Location #4374286","43-20 ASTORIA BOULEVARD SOUTH","ASTORIA","NY","11105","US","4374286","<MISSING>","Sunoco Gas Stations","40.768187","-73.9076098","24hrs"
"https://www.sunoco.com","https://www.sunoco.com/find-a-station/station/1993294","Sunoco Retail Location #1993294","MILEPOST 111.6 NJ TPK","SECAUCUS","NJ","07094","US","1993294","2013480656","Sunoco Gas Stations","40.75396","-74.11946","24hrs"
"https://www.sunoco.com","https://www.sunoco.com/find-a-station/station/5039169","Sunoco Retail Location #5039169","9701 DITMAS AVENUE","BROOKLYN","NY","11236","US","5039169","<MISSING>","Sunoco Gas Stations","40.65157","-73.90944","24hrs"
"https://www.sunoco.com","https://www.sunoco.com/find-a-station/station/1323740","Sunoco Retail Location #1323740","4102 AVENUE H","BROOKLYN","NY","11210","US","1323740","9179334811","Sunoco Gas Stations","40.63233","-73.93691","24hrs"
"https://www.sunoco.com","https://www.sunoco.com/find-a-station/station/3607686","Sunoco Retail Location #3607686","EAGLE SERVICE CENTER LLC 49-05 ASTORIA BOULEVARD","EAST ELMHURST","NY","11370","US","3607686","7187211700","Sunoco Gas Stations","40.767695","-73.901552","24hrs"
"https://www.sunoco.com","https://www.sunoco.com/find-a-station/station/71720","Sunoco Retail Location #71720","579 92ND STREET","BROOKLYN","NY","11209","US","71720","7186802901","Sunoco Gas Stations","40.616595","-74.026848","24hrs"
"https://www.sunoco.com","https://www.sunoco.com/find-a-station/station/6481352","Sunoco Retail Location #6481352","5916 FOSTER AVENUE","BROOKLYN","NY","11234","US","6481352","7182410011","Sunoco Gas Stations","40.6398","-73.92026","24hrs"
"https://www.sunoco.com","https://www.sunoco.com/find-a-station/station/6178776","Sunoco Retail Location #6178776","73-13 COOPER AVENUE","GLENDALE","NY","11385","US","6178776","<MISSING>","Sunoco Gas Stations","40.704404","-73.8768227","24hrs"
"https://www.sunoco.com","https://www.sunoco.com/find-a-station/station/71449","Sunoco Retail Location #71449","MACCHIA 972 REMSEN AVENUE","BROOKLYN","NY","11236","US","71449","9178079939","Sunoco Gas Stations","40.64468","-73.91091","24hrs"
"https://www.sunoco.com","https://www.sunoco.com/find-a-station/station/9534512","Sunoco Retail Location #9534512","794 JAMAICA AVENUE","BROOKLYN","NY","11208","US","9534512","<MISSING>","Sunoco Gas Stations","40.68852","-73.875265","24hrs"
"https://www.sunoco.com","https://www.sunoco.com/find-a-station/station/2612463","Sunoco Retail Location #2612463","296 PALISADES AVE","CLIFFSIDE PARK","NJ","07010","US","2612463","2019458790","Sunoco Gas Stations","40.814561","-73.991415","06:00-24:00"
"https://www.sunoco.com","https://www.sunoco.com/find-a-station/station/6226468","Sunoco Retail Location #6226468","719 NEW LOTS AVENUE","BROOKLYN","NY","11207","US","6226468","7184999768","Sunoco Gas Stations","40.666028","-73.8842873","24hrs"
"https://www.sunoco.com","https://www.sunoco.com/find-a-station/station/71266","Sunoco Retail Location #71266","1626 STILLWELL AVENUE","BROOKLYN","NY","11223","US","71266","7182327493","Sunoco Gas Stations","40.606362","-73.987356","24hrs"
"https://www.sunoco.com","https://www.sunoco.com/find-a-station/station/9129610","Sunoco Retail Location #9129610","88 ASTORIA BLVD.","JACKSON HEIGHTS","NY","11377","US","9129610","7184299852","Sunoco Gas Stations","40.76371","-73.88054","24hrs"
"https://www.sunoco.com","https://www.sunoco.com/find-a-station/station/3683059","Sunoco Retail Location #3683059","ULTRA CONV FOOD CENTER MILEPOST 116E 115W NJ TPK","RIDGEFIELD","NJ","07657","US","3683059","2019455112","Sunoco Gas Stations","40.822051","-74.029521","24hrs"
"https://www.sunoco.com","https://www.sunoco.com/find-a-station/station/5503578","Sunoco Retail Location #5503578","C & C TRUCK LEASING  INC. 832 HARRISON AVENUE","KEARNY","NJ","07032","US","5503578","2019973375","Sunoco Gas Stations","40.74834","-74.14476","07:00-23:00"
"https://www.sunoco.com","https://www.sunoco.com/find-a-station/station/140996","Sunoco Retail Location #140996","1907 CROPSEY AVENUE","BROOKLYN","NY","11214","US","140996","7182663630","Sunoco Gas Stations","40.601284","-74.004866","24hrs"
"https://www.sunoco.com","https://www.sunoco.com/find-a-station/station/134601","Sunoco Retail Location #134601","63-69 WILSON AVE & HENSLER ST","NEWARK","NJ","07105","US","134601","9735894144","Sunoco Gas Stations","40.7261","-74.15383","05:00-23:00"
"https://www.sunoco.com","https://www.sunoco.com/find-a-station/station/5516976","Sunoco Retail Location #5516976","2285 FLATBUSH AVENUE","BROOKLYN","NY","11234","US","5516976","7182532285","Sunoco Gas Stations","40.61442","-73.92775","24hrs"
"https://www.sunoco.com","https://www.sunoco.com/find-a-station/station/7668833","Sunoco Retail Location #7668833","2225 BATH AVE","BROOKLYN","NY","11214","US","7668833","7189960007","Sunoco Gas Stations","40.598056","-73.9962845","24hrs"
"https://www.sunoco.com","https://www.sunoco.com/find-a-station/station/3681814","Sunoco Retail Location #3681814","100-16-20 METROPOLITAN AVE.","FOREST HILLS","NY","11375","US","3681814","7182637771","Sunoco Gas Stations","40.71056","-73.852567","06:00-24:00"
"https://www.sunoco.com","https://www.sunoco.com/find-a-station/station/66498","Sunoco Retail Location #66498","452-462 BROAD AVE","RIDGEFIELD","NJ","07657","US","66498","2019459671","Sunoco Gas Stations","40.8294","-74.010299","05:00-23:00"
"https://www.sunoco.com","https://www.sunoco.com/find-a-station/station/7079601","Sunoco Retail Location #7079601","MILEPOST 116E 115W NJ TPK","RIDGEFIELD","NJ","07657","US","7079601","2019455112","Sunoco Gas Stations","40.82893","-74.02572","24hrs"
"https://www.sunoco.com","https://www.sunoco.com/find-a-station/station/71597","Sunoco Retail Location #71597","2489 CONEY ISLAND AVENUE","BROOKLYN","NY","11223","US","71597","7183369020","Sunoco Gas Stations","40.5961","-73.960999","24hrs"
"https://www.sunoco.com","https://www.sunoco.com/find-a-station/station/4932794","Sunoco Retail Location #4932794","ATTN DEPT 17035/ACCT # 93242 9300 CHERRY AVENUE","FONTANA","CA","92335","US","4932794","9094295000","Sunoco Gas Stations","34.08461","-117.489532","24hrs"
"https://www.sunoco.com","https://www.sunoco.com/find-a-station/station/3365731","Sunoco Retail Location #3365731","6367 N MILWAUKE AVE","CHICAGO","IL","60646","US","3365731","6306733382","Sunoco Gas Stations","41.99711","-87.787123","24hrs"
"https://www.sunoco.com","https://www.sunoco.com/find-a-station/station/7077514","Sunoco Retail Location #7077514","3342 DEMPTSTER ST","SKOKIE","IL","60646","US","7077514","7089713870","Sunoco Gas Stations","42.04119","-87.712852","06:00-22:00"
"https://www.sunoco.com","https://www.sunoco.com/find-a-station/station/883058","Sunoco Retail Location #883058","15355 DIXIE HWY","HARVEY","IL","60426","US","883058","7083594068","Sunoco Gas Stations","41.610211","-87.6706004","24hrs"
"https://www.sunoco.com","https://www.sunoco.com/find-a-station/station/3827797","Sunoco Retail Location #3827797","1101 CLARK RAOD","GARY","IN","47977","US","3827797","<MISSING>","Sunoco Gas Stations","41.5913","-87.3935097","24hrs"
"https://www.sunoco.com","https://www.sunoco.com/find-a-station/station/8266439","Sunoco Retail Location #8266439","2610 CHICAGO ROAD","CHICAGO HTS","IL","60411","US","8266439","7089713870","Sunoco Gas Stations","41.491112","-87.6393387","06:00-22:00"
"https://www.sunoco.com","https://www.sunoco.com/find-a-station/station/4932943","Sunoco Retail Location #4932943","SONOMA RACEWAY HIGHWAYS 37 & 121","SONOMA","CA","95476","US","4932943","7079388448","Sunoco Gas Stations","42.120655","-88.04248","24hrs"
"https://www.sunoco.com","https://www.sunoco.com/find-a-station/station/8835480","Sunoco Retail Location #8835480","5100 CLEM RD","PORTAGE","IN","46368","US","8835480","2197623641","Sunoco Gas Stations","41.58928","-87.21537","24hrs"
"https://www.sunoco.com","https://www.sunoco.com/find-a-station/station/7696263","Sunoco Retail Location #7696263","5105 PLAZA AVE","PORTAGE","IN","46368","US","7696263","2197624882","Sunoco Gas Stations","41.58528","-87.21685","24hrs"
"https://www.sunoco.com","https://www.sunoco.com/find-a-station/station/3643111","Sunoco Retail Location #3643111","20730 CATON FARM RD","CREST HILL","IL","60403","US","3643111","<MISSING>","Sunoco Gas Stations","41.566347","-88.1201502","24hrs"
"https://www.sunoco.com","https://www.sunoco.com/find-a-station/station/4932802","Sunoco Retail Location #4932802","500 SPEEDWAY BLVD","JOLIET","IL","60433","US","4932802","8157225500","Sunoco Gas Stations","41.47482","-88.0575256","24hrs"
"https://www.sunoco.com","https://www.sunoco.com/find-a-station/station/505586","Sunoco Retail Location #505586","1150 PRAIRIE STREET","AURORA","IL","60506","US","505586","6306733382","Sunoco Gas Stations","41.7520665","-88.344782","04:00-24:00"
"https://www.sunoco.com","https://www.sunoco.com/find-a-station/station/5875307","Sunoco Retail Location #5875307","520 NEWPORT COURT","ISLAND LAKE","IL","60042","US","5875307","<MISSING>","Sunoco Gas Stations","42.28063","-88.207616","24hrs"
"https://www.sunoco.com","https://www.sunoco.com/find-a-station/station/2111276","Sunoco Retail Location #2111276","7 N WILBUR SHAW PLZ","ROLLING PRAIRIE","IN","46371","US","2111276","2197788013","Sunoco Gas Stations","41.706357","-86.623341","24hrs"
"https://www.sunoco.com","https://www.sunoco.com/find-a-station/station/3091949","Sunoco Retail Location #3091949","6776 N COUNTY RD 425 E","ROLLING PRAIRIE","IN","46371","US","3091949","2197788085","Sunoco Gas Stations","41.706445","-86.621273","24hrs"
"https://www.sunoco.com","https://www.sunoco.com/find-a-station/station/4170908","Sunoco Retail Location #4170908","301 N DIVISION STREET","HARVARD","IL","60033","US","4170908","7735441975","Sunoco Gas Stations","42.419851","-88.6131642","04:00-24:00"
"https://www.sunoco.com","https://www.sunoco.com/find-a-station/station/1329960","Sunoco Retail Location #1329960","16551 MAYFLOWER ROAD","NILES","MI","49120","US","1329960","2696839558","Sunoco Gas Stations","41.759386","-86.323652","24hrs"
"https://www.sunoco.com","https://www.sunoco.com/find-a-station/station/8875270","Sunoco Retail Location #8875270","0-9605 BLUE STAR HWY","SOUTH HAVEN","MI","49090","US","8875270","2696375800","Sunoco Gas Stations","42.382461","-86.268141","07:00-18:00"
"https://www.sunoco.com","https://www.sunoco.com/find-a-station/station/6945174","Sunoco Retail Location #6945174","17145 W. GREENFIELD AVE.","NEW BERLIN","WI","53151","US","6945174","2627842277","Sunoco Gas Stations","43.0165","-88.1265282","05:00-24:00"
"https://www.sunoco.com","https://www.sunoco.com/find-a-station/station/5380795","Sunoco Retail Location #5380795","204 W. MONROE","BANGOR","MI","49013","US","5380795","2692077169","Sunoco Gas Stations","42.313624","-86.112471","06:00-23:00"
"https://www.sunoco.com","https://www.sunoco.com/find-a-station/station/6949689","Sunoco Retail Location #6949689","28054 COUNTY ROAD 4","ELKHART","IN","46514","US","6949689","5742664503","Sunoco Gas Stations","41.73267","-86.00515","24hrs"
"https://www.sunoco.com","https://www.sunoco.com/find-a-station/station/5974357","Sunoco Retail Location #5974357","2961 MOOSE TRL","ELKHART","IN","46514","US","5974357","5742664080","Sunoco Gas Stations","41.7318","-86.00498","24hrs"
"https://www.sunoco.com","https://www.sunoco.com/find-a-station/station/2690352","Sunoco Retail Location #2690352","1054 W. MARKET ST.","NAPPANEE","IN","46550","US","2690352","5747732344","Sunoco Gas Stations","41.443054","-86.013285","24hrs"
"https://www.sunoco.com","https://www.sunoco.com/find-a-station/station/4770814","Sunoco Retail Location #4770814","912 S MAIN","MONTICELLO","IN","47960","US","4770814","7326446269","Sunoco Gas Stations","40.73194","-86.76197","06:00-22:00"
"https://www.sunoco.com","https://www.sunoco.com/find-a-station/station/3744927","Sunoco Retail Location #3744927","601 MAIN ST","ROCHESTER","IN","46975","US","3744927","5742234488","Sunoco Gas Stations","40.94721","-86.262699","05:00-22:00"
"https://www.sunoco.com","https://www.sunoco.com/find-a-station/station/6807051","Sunoco Retail Location #6807051","68490 ST RT 15","NEW PARIS","IN","46553","US","6807051","5748316400","Sunoco Gas Stations","41.500692","-85.833262","06:00-24:00"
"https://www.sunoco.com","https://www.sunoco.com/find-a-station/station/2205193","Sunoco Retail Location #2205193","18228 HWY 59","HOUSTON","TX","77338","US","2205193","<MISSING>","Sunoco Gas Stations","29.752405","-95.35635","24hrs"
"https://www.sunoco.com","https://www.sunoco.com/find-a-station/station/5714597","Sunoco Retail Location #5714597","2329 SOUTHMORE BLVD","HOUSTON","TX","77004","US","5714597","7139427811","Sunoco Gas Stations","29.7218","-95.3756256","24hrs"
"https://www.sunoco.com","https://www.sunoco.com/find-a-station/station/7885866","Sunoco Retail Location #7885866","14811 NORTH FWY (I-45)","HOUSTON","TX","77090","US","7885866","2818746863","Sunoco Gas Stations","29.815303","-95.37412","24hrs"
"https://www.sunoco.com","https://www.sunoco.com/find-a-station/station/6097679","Sunoco Retail Location #6097679","4300 OLD SPANISH TRAIL/CULLEN","HOUSTON","TX","77021","US","6097679","7137480726","Sunoco Gas Stations","29.704242","-95.34912","24hrs"
"https://www.sunoco.com","https://www.sunoco.com/find-a-station/station/232066","Sunoco Retail Location #232066","6155 S LOOP EAST","HOUSTON","TX","77087","US","232066","3536440265","Sunoco Gas Stations","29.695711","-95.31919","24hrs"
"https://www.sunoco.com","https://www.sunoco.com/find-a-station/station/6322564","Sunoco Retail Location #6322564","HWY 59 AND LAURA KOPPE ROAD","HOUSTON","TX","77093","US","6322564","<MISSING>","Sunoco Gas Stations","29.841279","-95.3322515","24hrs"
"https://www.sunoco.com","https://www.sunoco.com/find-a-station/station/1056688","Sunoco Retail Location #1056688","5303 NORTH MCCARTY","HOUSTON","TX","77013","US","1056688","<MISSING>","Sunoco Gas Stations","29.8092","-95.2612709","24hrs"
"https://www.sunoco.com","https://www.sunoco.com/find-a-station/station/9587122","Sunoco Retail Location #9587122","7925 HOWARD DRIVE","HOUSTON","TX","77017","US","9587122","7136440424","Sunoco Gas Stations","29.676597","-95.26735","24hrs"
"https://www.sunoco.com","https://www.sunoco.com/find-a-station/station/4912150","Sunoco Retail Location #4912150","7101 SW FREEWAY","HOUSTON","TX","77074","US","4912150","<MISSING>","Sunoco Gas Stations","29.706031","-95.5101674","24hrs"
"https://www.sunoco.com","https://www.sunoco.com/find-a-station/station/4583001","Sunoco Retail Location #4583001","1402 FEDERAL RD/DORWAYNE CT","HOUSTON","TX","77015","US","4583001","7134515212","Sunoco Gas Stations","29.7637825","-95.21395","24hrs"
"https://www.sunoco.com","https://www.sunoco.com/find-a-station/station/5115647","Sunoco Retail Location #5115647","9450 AIRLIN DRIVE","HOUSTON","TX","77037","US","5115647","<MISSING>","Sunoco Gas Stations","29.895296","-95.3974977","24hrs"
"https://www.sunoco.com","https://www.sunoco.com/find-a-station/station/1319979","Sunoco Retail Location #1319979","12557 WOODFOREST BOULEVARD","HOUSTON","TX","77015","US","1319979","7134515322","Sunoco Gas Stations","29.79158","-95.202647","24hrs"
"https://www.sunoco.com","https://www.sunoco.com/find-a-station/station/2716678","Sunoco Retail Location #2716678","11720 TOMBALL PKWY (SH 249)","HOUSTON","TX","77086","US","2716678","2819990904","Sunoco Gas Stations","29.901371","-95.465121","24hrs"
"https://www.sunoco.com","https://www.sunoco.com/find-a-station/station/4008223","Sunoco Retail Location #4008223","PCC 4879 10040 VETERANS MEMORIAL DRIVE","HOUSTON","TX","77061","US","4008223","<MISSING>","Sunoco Gas Stations","29.912088","-95.439967","24hrs"
"https://www.sunoco.com","https://www.sunoco.com/find-a-station/station/421651","Sunoco Retail Location #421651","WESTPARK DR & SUMIT VALLEY DR","HOUSTON","TX","77082","US","421651","<MISSING>","Sunoco Gas Stations","29.7222288","-95.5539326","24hrs"
"https://www.sunoco.com","https://www.sunoco.com/find-a-station/station/8533218","Sunoco Retail Location #8533218","10619 S. GESSNER","HOUSTON","TX","77071","US","8533218","<MISSING>","Sunoco Gas Stations","29.665354","-95.527547","24hrs"
"https://www.sunoco.com","https://www.sunoco.com/find-a-station/station/8302358","Sunoco Retail Location #8302358","1401 SOUTHMORE AVENUE","PASADENA","TX","77506","US","8302358","7134755969","Sunoco Gas Stations","29.691995","-95.192812","24hrs"
"https://www.sunoco.com","https://www.sunoco.com/find-a-station/station/1475938","Sunoco Retail Location #1475938","PCC 5121 8330 W. BELLFORT AVE","HOUSTON","TX","77071","US","1475938","<MISSING>","Sunoco Gas Stations","29.655765","-95.52455","24hrs"
"https://www.sunoco.com","https://www.sunoco.com/find-a-station/station/2385771","Sunoco Retail Location #2385771","12712 FONDREN RD","MISSOURI CITY","TX","77035","US","2385771","7137233667","Sunoco Gas Stations","29.638086","-95.508633","24hrs"
"https://www.sunoco.com","https://www.sunoco.com/find-a-station/station/3752128","Sunoco Retail Location #3752128","14550 JOHN F KENNEDY BLVD","HOUSTON","TX","77032","US","3752128","2817765225","Sunoco Gas Stations","29.929817","-95.330643","24hrs"
"https://www.sunoco.com","https://www.sunoco.com/find-a-station/station/8727091","Sunoco Retail Location #8727091","15182 S POST OAK RD.","HOUSTON","TX","77053","US","8727091","7343488801","Sunoco Gas Stations","29.606215","-95.465249","24hrs"
"https://www.sunoco.com","https://www.sunoco.com/find-a-station/station/7244668","Sunoco Retail Location #7244668","11191 MONROE RD","HOUSTON","TX","77075","US","7244668","7139912100","Sunoco Gas Stations","29.604398","-95.266136","24hrs"
"https://www.sunoco.com","https://www.sunoco.com/find-a-station/station/4266854","Sunoco Retail Location #4266854","2817 RED BLUFF RD/SOUTH ST","PASADENA","TX","77503","US","4266854","7135340472","Sunoco Gas Stations","29.694475","-95.17153","24hrs"
"https://www.sunoco.com","https://www.sunoco.com/find-a-station/station/3075140","Sunoco Retail Location #3075140","7784 FAIRBANKS N HOUSTON RD","HOUSTON","TX","77040","US","3075140","7138569434","Sunoco Gas Stations","29.892582","-95.524453","24hrs"
"https://www.sunoco.com","https://www.sunoco.com/find-a-station/station/6770101","Sunoco Retail Location #6770101","SWC GESSNER & PHILLPINE","HOUSTON","TX","77040","US","6770101","7138569300","Sunoco Gas Stations","29.885914","-95.5431303","24hrs"
"https://www.sunoco.com","https://www.sunoco.com/find-a-station/station/8033391","Sunoco Retail Location #8033391","12091 WESTPARK DR/WEST HOUSTON","HOUSTON","TX","77082","US","8033391","2819200870","Sunoco Gas Stations","29.724306","-95.59182","24hrs"
"https://www.sunoco.com","https://www.sunoco.com/find-a-station/station/566364","Sunoco Retail Location #566364","15922 WALLISVILLE RD","CHANNELVIEW","TX","77049","US","566364","2818600181","Sunoco Gas Stations","29.811761","-95.151449","24hrs"
"https://www.sunoco.com","https://www.sunoco.com/find-a-station/station/525030","Sunoco Retail Location #525030","3949 RED BLUFF RD/PASADENA BLV","PASADENA","TX","77503","US","525030","2819301014","Sunoco Gas Stations","29.681982","-95.150456","24hrs"
"https://www.sunoco.com","https://www.sunoco.com/find-a-station/station/2826873","Sunoco Retail Location #2826873","702 RANKIN RD","HOUSTON","TX","77073","US","2826873","2818210290","Sunoco Gas Stations","29.965769","-95.401717","24hrs"
"https://www.sunoco.com","https://www.sunoco.com/find-a-station/station/6892160","Sunoco Retail Location #6892160","11530 BAMMEL N HOUSTON RD","HOUSTON","TX","77066","US","6892160","2818931017","Sunoco Gas Stations","29.945917","-95.497659","24hrs"
"https://www.sunoco.com","https://www.sunoco.com/find-a-station/station/2818698","Sunoco Retail Location #2818698","5234 SPENCER HWY","LA PORTE","TX","77571","US","2818698","<MISSING>","Sunoco Gas Stations","29.66538","-95.1436017","24hrs"
"https://www.sunoco.com","https://www.sunoco.com/find-a-station/station/4060208","Sunoco Retail Location #4060208","14834 N FREEWAY/AIRTEX DRIVE","HOUSTON","TX","77090","US","4060208","2812090918","Sunoco Gas Stations","29.981257","-95.421572","24hrs"
"https://www.sunoco.com","https://www.sunoco.com/find-a-station/station/422212","Sunoco Retail Location #422212","3002 CENTER STREET/AVENUE P","DEER PARK","TX","77536","US","422212","2814797710","Sunoco Gas Stations","29.683755","-95.1239","24hrs"
"https://www.sunoco.com","https://www.sunoco.com/find-a-station/station/2049898","Sunoco Retail Location #2049898","9735 SHELDON RD & BLAIRWOOD DR","HOUSTON","TX","77049","US","2049898","2814560147","Sunoco Gas Stations","29.847534","-95.12785","24hrs"
"https://www.sunoco.com","https://www.sunoco.com/find-a-station/station/2772879","Sunoco Retail Location #2772879","3818 CARTWRIGHT RD","MISSOURI CITY","TX","77459","US","2772879","2812080091","Sunoco Gas Stations","29.582979","-95.565429","24hrs"
"https://www.sunoco.com","https://www.sunoco.com/find-a-station/station/8647059","Sunoco Retail Location #8647059","11350 JONES RD/TOWER OAKS RD","HOUSTON","TX","77070","US","8647059","2818940766","Sunoco Gas Stations","29.93889","-95.584495","24hrs"
"https://www.sunoco.com","https://www.sunoco.com/find-a-station/station/9362468","Sunoco Retail Location #9362468","1700 UNDERWOOD ROAD","LA PORTE","TX","77571","US","9362468","<MISSING>","Sunoco Gas Stations","29.679375","-95.087487","24hrs"
"https://www.sunoco.com","https://www.sunoco.com/find-a-station/station/6894216","Sunoco Retail Location #6894216","8929 W FAIRMONT PKWY","LA PORTE","TX","77571","US","6894216","2814769776","Sunoco Gas Stations","29.651323","-95.0985","24hrs"
"https://www.sunoco.com","https://www.sunoco.com/find-a-station/station/9199076","Sunoco Retail Location #9199076","11508 STATE HWY 6","FRESNO","TX","77545","US","9199076","2814312300","Sunoco Gas Stations","29.522601","-95.49163","24hrs"
"https://www.sunoco.com","https://www.sunoco.com/find-a-station/station/66000681","Sunoco Retail Location #66000681","9119 HWY 225","LA PORTE","TX","77571","US","66000681","2819327954","Sunoco Gas Stations","29.6988811","-95.07177","05:00-24:00"
"https://www.sunoco.com","https://www.sunoco.com/find-a-station/station/4828489","Sunoco Retail Location #4828489","SW CR OF BISONETT AND CLODINE","RICHMOND","TX","77407","US","4828489","<MISSING>","Sunoco Gas Stations","29.676617","-95.6799975","24hrs"
"https://www.sunoco.com","https://www.sunoco.com/find-a-station/station/5037981","Sunoco Retail Location #5037981","7421 FM 1464 RD/WATERING OAKS","RICHMOND","TX","77407","US","5037981","2814942232","Sunoco Gas Stations","29.698617","-95.687511","24hrs"
"https://www.sunoco.com","https://www.sunoco.com/find-a-station/station/8910531","Sunoco Retail Location #8910531","6206 DECKER DRIVE","BAYTOWN","TX","77521","US","8910531","<MISSING>","Sunoco Gas Stations","29.784177","-95.0339355","24hrs"
"https://www.sunoco.com","https://www.sunoco.com/find-a-station/station/6967509","Sunoco Retail Location #6967509","20135 MORRIS AVE","MANVEL","TX","77578","US","6967509","2816929813","Sunoco Gas Stations","29.467629","-95.356438","24hrs"
"https://www.sunoco.com","https://www.sunoco.com/find-a-station/station/6642680","Sunoco Retail Location #6642680","4514 LOUETTA RD/SORRELL RIDGE","SPRING","TX","77388","US","6642680","2815288112","Sunoco Gas Stations","30.044129","-95.4826345","24hrs"
"https://www.sunoco.com","https://www.sunoco.com/find-a-station/station/2242519","Sunoco Retail Location #2242519","2601 W MAIN ST","LA PORTE","TX","77571","US","2242519","2818421185","Sunoco Gas Stations","29.664661","-95.03702","24hrs"
"https://www.sunoco.com","https://www.sunoco.com/find-a-station/station/9411372","Sunoco Retail Location #9411372","904 W BARBOURS CUT BLVD","LA PORTE","TX","77571","US","9411372","<MISSING>","Sunoco Gas Stations","29.674405","-95.0284798","24hrs"
"https://www.sunoco.com","https://www.sunoco.com/find-a-station/station/494526","Sunoco Retail Location #494526","23696 EASTEX FREEWAY/NORTHPARK","KINGWOOD","TX","77339","US","494526","2813489550","Sunoco Gas Stations","30.059295","-95.249201","24hrs"
"https://www.sunoco.com","https://www.sunoco.com/find-a-station/station/4222139","Sunoco Retail Location #4222139","150 FOREST CENTER DRIVE","KINGWOOD","TX","77339","US","4222139","2813580706","Sunoco Gas Stations","30.064828","-95.249625","24hrs"
"https://www.sunoco.com","https://www.sunoco.com/find-a-station/station/6501134","Sunoco Retail Location #6501134","3405 FM 2920 RD/MEADOWHILL DR","SPRING","TX","77388","US","6501134","2812885310","Sunoco Gas Stations","30.070039","-95.470832","24hrs"
"https://www.sunoco.com","https://www.sunoco.com/find-a-station/station/4887469","Sunoco Retail Location #4887469","2201 WALNUT STREET","PHILADELPHIA","PA","19103","US","4887469","2155677650","Sunoco Gas Stations","39.951005","-75.177312","24hrs"
"https://www.sunoco.com","https://www.sunoco.com/find-a-station/station/48868","Sunoco Retail Location #48868","801 S. BROAD STREET","PHILADELPHIA","PA","19147","US","48868","2154752546","Sunoco Gas Stations","39.940576","-75.165893","24hrs"
"https://www.sunoco.com","https://www.sunoco.com/find-a-station/station/7086309","Sunoco Retail Location #7086309","1100 SOUTH 10TH ST","PHILADELPHIA","PA","19147","US","7086309","2153341842","Sunoco Gas Stations","39.936702","-75.160285","24hrs"
"https://www.sunoco.com","https://www.sunoco.com/find-a-station/station/9055088","Sunoco Retail Location #9055088","2300-16 FAIRMOUNT AVE","PHILADELPHIA","PA","19130","US","9055088","2152366590","Sunoco Gas Stations","39.9674","-75.1754","24hrs"
"https://www.sunoco.com","https://www.sunoco.com/find-a-station/station/48355","Sunoco Retail Location #48355","1300 NORTH BROAD STREET","PHILADELPHIA","PA","19121","US","48355","2157630127","Sunoco Gas Stations","39.973539","-75.15932","24hrs"
"https://www.sunoco.com","https://www.sunoco.com/find-a-station/station/2033132","Sunoco Retail Location #2033132","900 WEST COLLEGE AVENUE","PHILADELPHIA","PA","19130","US","2033132","2152351495","Sunoco Gas Stations","39.97287","-75.178081","06:00-24:00"
"https://www.sunoco.com","https://www.sunoco.com/find-a-station/station/3639465","Sunoco Retail Location #3639465","SUNOCO APLUS MINI MARKET 2101 SOUTH 17TH STREET","PHILADELPHIA","PA","19145","US","3639465","2157557665","Sunoco Gas Stations","39.924866","-75.174197","24hrs"
"https://www.sunoco.com","https://www.sunoco.com/find-a-station/station/48132","Sunoco Retail Location #48132","3750 W GIRARD AVENUE","PHILADELPHIA","PA","19104","US","48132","2153870771","Sunoco Gas Stations","39.974505","-75.199154","24hrs"
"https://www.sunoco.com","https://www.sunoco.com/find-a-station/station/5347190","Sunoco Retail Location #5347190","1701 N 33RD STREET","PHILADELPHIA","PA","19121","US","5347190","2676872618","Sunoco Gas Stations","39.98291","-75.187848","24hrs"
"https://www.sunoco.com","https://www.sunoco.com/find-a-station/station/6783872","Sunoco Retail Location #6783872","1825-33 OREGON AVENUE","PHILADELPHIA","PA","19145","US","6783872","2154683118","Sunoco Gas Stations","39.918028","-75.178984","24hrs"
"https://www.sunoco.com","https://www.sunoco.com/find-a-station/station/3639408","Sunoco Retail Location #3639408","SUNOCO APLUS STORE 4500 BALTIMORE AVENUE","PHILADELPHIA","PA","19143","US","3639408","2153825914","Sunoco Gas Stations","39.948746","-75.212982","24hrs"
"https://www.sunoco.com","https://www.sunoco.com/find-a-station/station/8653131","Sunoco Retail Location #8653131","4601 WALNUT ST","PHILADELPHIA","PA","19139","US","8653131","2154724214","Sunoco Gas Stations","39.955508","-75.213645","24hrs"
"https://www.sunoco.com","https://www.sunoco.com/find-a-station/station/5385950","Sunoco Retail Location #5385950","700 COOPER STREET","CAMDEN","NJ","08102","US","5385950","8569649110","Sunoco Gas Stations","39.945967","-75.11712","06:00-24:00"
"https://www.sunoco.com","https://www.sunoco.com/find-a-station/station/3744117","Sunoco Retail Location #3744117","4600 CHESTNUT STREET","PHILADELPHIA","PA","19139","US","3744117","2154713122","Sunoco Gas Stations","39.95685","-75.213955","24hrs"
"https://www.sunoco.com","https://www.sunoco.com/find-a-station/station/3625944","Sunoco Retail Location #3625944","2751 PASSYUNK AVE","PHILADELPHIA","PA","19145","US","3625944","2154633428","Sunoco Gas Stations","39.92121","-75.19305","24hrs"
"https://www.sunoco.com","https://www.sunoco.com/find-a-station/station/3634060","Sunoco Retail Location #3634060","59 E OREGON AVENUE","PHILADELPHIA","PA","19148","US","3634060","2154638013","Sunoco Gas Stations","39.914307","-75.149427","24hrs"
"https://www.sunoco.com","https://www.sunoco.com/find-a-station/station/3633286","Sunoco Retail Location #3633286","2634-44 NORTH BROAD STREET","PHILADELPHIA","PA","19132","US","3633286","2152285191","Sunoco Gas Stations","39.993222","-75.154693","24hrs"
"https://www.sunoco.com","https://www.sunoco.com/find-a-station/station/9746355","Sunoco Retail Location #9746355","33RD AND YORK STREET","PHILADELPHIA","PA","19104","US","9746355","2152237530","Sunoco Gas Stations","39.99338","-75.18595","24hrs"
"https://www.sunoco.com","https://www.sunoco.com/find-a-station/station/3639440","Sunoco Retail Location #3639440","301 SOUTH 52ND STREET","PHILADELPHIA","PA","19143","US","3639440","2154745933","Sunoco Gas Stations","39.954567","-75.226005","24hrs"
"https://www.sunoco.com","https://www.sunoco.com/find-a-station/station/47027","Sunoco Retail Location #47027","2685 FRANKFORD AVENUE","PHILADELPHIA","PA","19125","US","47027","2157398322","Sunoco Gas Stations","39.98667","-75.122443","06:00-24:00"
"https://www.sunoco.com","https://www.sunoco.com/find-a-station/station/9304908","Sunoco Retail Location #9304908","PETROLEUM CO INC. 2750 ARAMINGO AVENUE","PHILADELPHIA","PA","19134","US","9304908","2156348051","Sunoco Gas Stations","39.98347","-75.11589","24hrs"
"https://www.sunoco.com","https://www.sunoco.com/find-a-station/station/7680028","Sunoco Retail Location #7680028","2601 PENROSE AVE","PHILADELPHIA","PA","19145","US","7680028","2154658450","Sunoco Gas Stations","39.905901","-75.1939","24hrs"
"https://www.sunoco.com","https://www.sunoco.com/find-a-station/station/47043","Sunoco Retail Location #47043","5201 LANCASTER AVENUE","PHILADELPHIA","PA","19131","US","47043","2158780672","Sunoco Gas Stations","39.977202","-75.226798","24hrs"
"https://www.sunoco.com","https://www.sunoco.com/find-a-station/station/5782024","Sunoco Retail Location #5782024","3200 RICHMOND ST","PHILADELPHIA","PA","19134","US","5782024","2154250282","Sunoco Gas Stations","39.983","-75.101399","24hrs"
"https://www.sunoco.com","https://www.sunoco.com/find-a-station/station/3639499","Sunoco Retail Location #3639499","AMBER & ALLEGHENY AVENUE","PHILADELPHIA","PA","19134","US","3639499","2154261543","Sunoco Gas Stations","39.991774","-75.109495","24hrs"
"https://www.sunoco.com","https://www.sunoco.com/find-a-station/station/4306239","Sunoco Retail Location #4306239","500 W ERIE AVENUE","PHILADELPHIA","PA","19140","US","4306239","2152274874","Sunoco Gas Stations","40.007404","-75.136899","24hrs"
"https://www.sunoco.com","https://www.sunoco.com/find-a-station/station/4587416","Sunoco Retail Location #4587416","4156-78 RIDGE AVE","PHILADELPHIA","PA","19129","US","4587416","2158494492","Sunoco Gas Stations","40.008455","-75.193284","24hrs"
"https://www.sunoco.com","https://www.sunoco.com/find-a-station/station/48926","Sunoco Retail Location #48926","3398 ARAMINGO & ONTARIO","PHILADELPHIA","PA","19134","US","48926","2154255265","Sunoco Gas Stations","39.9911","-75.10151","24hrs"
"https://www.sunoco.com","https://www.sunoco.com/find-a-station/station/3631439","Sunoco Retail Location #3631439","4140 N. BROAD STREET","PHILADELPHIA","PA","19140","US","3631439","2153243061","Sunoco Gas Stations","40.016661","-75.149914","24hrs"
"https://www.sunoco.com","https://www.sunoco.com/find-a-station/station/3630134","Sunoco Retail Location #3630134","4160 N AMERICAN STREET","PHILADELPHIA","PA","19140","US","3630134","2154556057","Sunoco Gas Stations","40.014341","-75.131497","06:00-24:00"
"https://www.sunoco.com","https://www.sunoco.com/find-a-station/station/8142333","Sunoco Retail Location #8142333","4900 CITY AVENUE","PHILADELPHIA","PA","19131","US","8142333","2154774565","Sunoco Gas Stations","40.000769","-75.2266655","24hrs"
"https://www.sunoco.com","https://www.sunoco.com/find-a-station/station/6196943","Sunoco Retail Location #6196943","1 E CITY LINE AVE","BELMONT HILLS","PA","19004","US","6196943","6106688491","Sunoco Gas Stations","40.00169","-75.226308","24hrs"
"https://www.sunoco.com","https://www.sunoco.com/find-a-station/station/3639630","Sunoco Retail Location #3639630","3670 RICHMOND AVENUE","PHILADELPHIA","PA","19134","US","3639630","2156347747","Sunoco Gas Stations","39.989245","-75.090015","24hrs"
"https://www.sunoco.com","https://www.sunoco.com/find-a-station/station/4293957","Sunoco Retail Location #4293957","TRUCK REPAIR INC 550 CRESCENT BLVD","WEST COLLINGSWOOD","NJ","08107","US","4293957","7326962201","Sunoco Gas Stations","39.91579","-75.09016","24hrs"
"https://www.sunoco.com","https://www.sunoco.com/find-a-station/station/4435939","Sunoco Retail Location #4435939","2500 ISLAND AVE & ELMWOOD AVE","PHILADELPHIA","PA","19153","US","4435939","2153657209","Sunoco Gas Stations","39.912459","-75.2436247","24hrs"
"https://www.sunoco.com","https://www.sunoco.com/find-a-station/station/4935250","Sunoco Retail Location #4935250","401 E. BALTIMORE PIKE","EAST LANSDOWNE","PA","19050","US","4935250","4844617733","Sunoco Gas Stations","39.940145","-75.262618","24hrs"
"https://www.sunoco.com","https://www.sunoco.com/find-a-station/station/3633799","Sunoco Retail Location #3633799","SUNOCO APLUS 100 WEST QUEEN LANE","PHILADELPHIA","PA","19144","US","3633799","2158449921","Sunoco Gas Stations","40.030054","-75.170359","24hrs"
"https://www.sunoco.com","https://www.sunoco.com/find-a-station/station/3630597","Sunoco Retail Location #3630597","5000 OGONTZ AVENUE","PHILADELPHIA","PA","19141","US","3630597","2154554575","Sunoco Gas Stations","40.0299","-75.153199","24hrs"
"https://www.sunoco.com","https://www.sunoco.com/find-a-station/station/3639606","Sunoco Retail Location #3639606","321 NORTH MACDADE BOULEVARD","DARBY","PA","19023","US","3639606","6102379506","Sunoco Gas Stations","39.923539","-75.259779","24hrs"
"https://www.sunoco.com","https://www.sunoco.com/find-a-station/station/3634367","Sunoco Retail Location #3634367","5017-25 NORTH BROAD STREET","PHILADELPHIA","PA","19141","US","3634367","2154551380","Sunoco Gas Stations","40.02962","-75.14674","24hrs"
"https://www.sunoco.com","https://www.sunoco.com/find-a-station/station/4920740","Sunoco Retail Location #4920740","150 BLACK HORSE PIKE","HADDON TOWNSHIP","NJ","08035","US","4920740","8564563919","Sunoco Gas Stations","39.897104","-75.092933","06:00-24:00"
"https://www.sunoco.com","https://www.sunoco.com/find-a-station/station/3630522","Sunoco Retail Location #3630522","5901 WISSAHICKON AVENUE","PHILADELPHIA","PA","19144","US","3630522","2158434845","Sunoco Gas Stations","40.029513","-75.186112","24hrs"
"https://www.sunoco.com","https://www.sunoco.com/find-a-station/station/1607902","Sunoco Retail Location #1607902","5301 ROUTE 38 WEST","PENNSAUKEN","NJ","08109","US","1607902","8566637661","Sunoco Gas Stations","39.93549","-75.06394","06:00-24:00"
"https://www.sunoco.com","https://www.sunoco.com/find-a-station/station/4271219","Sunoco Retail Location #4271219","5650 RIDGE AVENUE","PHILADELPHIA","PA","19128","US","4271219","2154831539","Sunoco Gas Stations","40.026635","-75.209479","05:00-22:00"
"https://www.sunoco.com","https://www.sunoco.com/find-a-station/station/3635067","Sunoco Retail Location #3635067","630 WALNUT LANE","PHILADELPHIA","PA","19128","US","3635067","2154870563","Sunoco Gas Stations","40.028755","-75.206107","24hrs"
"https://www.sunoco.com","https://www.sunoco.com/find-a-station/station/3631710","Sunoco Retail Location #3631710","5338 NORTH 5TH STREET","PHILADELPHIA","PA","19120","US","3631710","2153243703","Sunoco Gas Stations","40.032682","-75.131342","24hrs"
"https://www.sunoco.com","https://www.sunoco.com/find-a-station/station/3633856","Sunoco Retail Location #3633856","143 W. FISHERS AVENUE","PHILADELPHIA","PA","19120","US","3633856","2153297104","Sunoco Gas Stations","40.031152","-75.124569","24hrs"
"https://www.sunoco.com","https://www.sunoco.com/find-a-station/station/5171137","Sunoco Retail Location #5171137","3951 ROOSEVELT BOULEVARD","PHILADELPHIA","PA","19124","US","5171137","2155355915","Sunoco Gas Stations","40.02783","-75.1107232","24hrs"
"https://www.sunoco.com","https://www.sunoco.com/find-a-station/station/3635182","Sunoco Retail Location #3635182","SUNOCO APLUS MINI MARKET 330 E LANCASTER AVENUE","WYNNEWOOD","PA","19096","US","3635182","6106580228","Sunoco Gas Stations","39.993721","-75.265721","24hrs"
"https://www.sunoco.com","https://www.sunoco.com/find-a-station/station/6165005","Sunoco Retail Location #6165005","BELMONT & JEFFERSON STS","BELMONT HILLS","PA","19004","US","6165005","6106648311","Sunoco Gas Stations","40.024419","-75.230027","24hrs"
"https://www.sunoco.com","https://www.sunoco.com/find-a-station/station/4932927","Sunoco Retail Location #4932927","7602 S. 115TH AVENUE","AVONDALE","AZ","85323","US","4932927","6022523833","Sunoco Gas Stations","33.37331","-112.314247","24hrs"
"https://www.sunoco.com","https://www.sunoco.com/find-a-station/station/6387476","Sunoco Retail Location #6387476","1822 NORTH ZARZAMORA","SAN ANTONIO","TX","78201","US","6387476","<MISSING>","Sunoco Gas Stations","29.446949","-98.52442","24hrs"
"https://www.sunoco.com","https://www.sunoco.com/find-a-station/station/6098073","Sunoco Retail Location #6098073","3682 CULEBRA ROAD","SAN ANTONIO","TX","78228","US","6098073","<MISSING>","Sunoco Gas Stations","29.449531","-98.5765227","24hrs"
"https://www.sunoco.com","https://www.sunoco.com/find-a-station/station/9259656","Sunoco Retail Location #9259656","2728 NORTH AUSTIN STREET","SEGUIN","TX","78155","US","9259656","8304010503","Sunoco Gas Stations","29.598285","-97.96553","24hrs"
"https://www.sunoco.com","https://www.sunoco.com/find-a-station/station/5237805","Sunoco Retail Location #5237805","1202 OAK STREET","JOURDANTON","TX","78026","US","5237805","8307693359","Sunoco Gas Stations","28.921062","-98.54075","24hrs"
"https://www.sunoco.com","https://www.sunoco.com/find-a-station/station/9537069","Sunoco Retail Location #9537069","3936 SOUTH IH 35","SAN MARCOS","TX","78666","US","9537069","<MISSING>","Sunoco Gas Stations","29.829065","-97.985133","24hrs"
"https://www.sunoco.com","https://www.sunoco.com/find-a-station/station/6487789","Sunoco Retail Location #6487789","2101 N HWY 123","SAN MARCOS","TX","78666","US","6487789","5123928921","Sunoco Gas Stations","29.845287","-97.940328","24hrs"
"https://www.sunoco.com","https://www.sunoco.com/find-a-station/station/3267846","Sunoco Retail Location #3267846","1302 WEST HOPKINS STREET","SAN MARCOS","TX","78666","US","3267846","5123927921","Sunoco Gas Stations","29.8739853","-97.95582","24hrs"
"https://www.sunoco.com","https://www.sunoco.com/find-a-station/station/3772548","Sunoco Retail Location #3772548","1200 HWY 80","SAN MARCOS","TX","78666","US","3772548","5123928635","Sunoco Gas Stations","29.8802433","-97.91299","24hrs"
"https://www.sunoco.com","https://www.sunoco.com/find-a-station/station/1702547","Sunoco Retail Location #1702547","1903 IH 35N","SAN MARCOS","TX","78666","US","1702547","5123530162","Sunoco Gas Stations","29.899411","-97.907539","24hrs"
"https://www.sunoco.com","https://www.sunoco.com/find-a-station/station/1497882","Sunoco Retail Location #1497882","19350 IH 35","KYLE","TX","78640","US","1497882","5122620174","Sunoco Gas Stations","30.028074","-97.851328","24hrs"
"https://www.sunoco.com","https://www.sunoco.com/find-a-station/station/8772147","Sunoco Retail Location #8772147","521 N US HWY 281","JOHNSON CITY","TX","78636","US","8772147","8308682800","Sunoco Gas Stations","30.26896","-98.39801","24hrs"
"https://www.sunoco.com","https://www.sunoco.com/find-a-station/station/4850418","Sunoco Retail Location #4850418","125 N FM 1626","BUDA","TX","78610","US","4850418","5122953121","Sunoco Gas Stations","30.098251","-97.875541","24hrs"
"https://www.sunoco.com","https://www.sunoco.com/find-a-station/station/7544273","Sunoco Retail Location #7544273","1309 MAIN STREET","BUDA","TX","78610","US","7544273","5122034514","Sunoco Gas Stations","30.087449","-97.8306298","06:00-24:00"
"https://www.sunoco.com","https://www.sunoco.com/find-a-station/station/6289532","Sunoco Retail Location #6289532","2204 HWY 16 SOUTH","FREDERICKSBURG","TX","78624","US","6289532","8309973153","Sunoco Gas Stations","30.25113","-98.89522","24hrs"
"https://www.sunoco.com","https://www.sunoco.com/find-a-station/station/3189297","Sunoco Retail Location #3189297","4200 NORTH ESPLANADE","CUERO","TX","77954","US","3189297","<MISSING>","Sunoco Gas Stations","29.131382","-97.276546","24hrs"
"https://www.sunoco.com","https://www.sunoco.com/find-a-station/station/6122238","Sunoco Retail Location #6122238","3501 NORTH HWY 281","MARBLE FALLS","TX","78654","US","6122238","8306937930","Sunoco Gas Stations","30.523578","-98.28703","24hrs"
"https://www.sunoco.com","https://www.sunoco.com/find-a-station/station/8156788","Sunoco Retail Location #8156788","STATE HWY 71 & STATE HWY 111","MIDFIELDS","TX","77458","US","8156788","<MISSING>","Sunoco Gas Stations","30.184517","-97.5447313","24hrs"
"https://www.sunoco.com","https://www.sunoco.com/find-a-station/station/5530142","Sunoco Retail Location #5530142","2601 W BRAKER LANE","AUSTIN","TX","78758","US","5530142","5126504319","Sunoco Gas Stations","30.39077","-97.72026","05:00-24:00"
"https://www.sunoco.com","https://www.sunoco.com/find-a-station/station/9889270","Sunoco Retail Location #9889270","10401 N IH 35","AUSTIN","TX","78727","US","9889270","5122034514","Sunoco Gas Stations","30.36784","-97.6812659","06:00-24:00"
"https://www.sunoco.com","https://www.sunoco.com/find-a-station/station/2732709","Sunoco Retail Location #2732709","3400 E HOWARD LANE","PFLUGERVILLE","TX","78660","US","2732709","5122034514","Sunoco Gas Stations","30.388411","-97.6193737","06:00-24:00"
"https://www.sunoco.com","https://www.sunoco.com/find-a-station/station/2361558","Sunoco Retail Location #2361558","602 S. BELL BLVD","CEDAR PARK","TX","78613","US","2361558","<MISSING>","Sunoco Gas Stations","30.50338","-97.81872","24hrs"
"https://www.sunoco.com","https://www.sunoco.com/find-a-station/station/7974439","Sunoco Retail Location #7974439","W. NEW HOPE DR & CLOVER LANE","CEDAR PARK","TX","78613","US","7974439","<MISSING>","Sunoco Gas Stations","30.527517","-97.8540807","24hrs"
"https://www.sunoco.com","https://www.sunoco.com/find-a-station/station/5487814","Sunoco Retail Location #5487814","901 HWY 95","BASTROP","TX","78602","US","5487814","5123081983","Sunoco Gas Stations","30.10999","-97.30643","24hrs"
"https://www.sunoco.com","https://www.sunoco.com/find-a-station/station/2089928","Sunoco Retail Location #2089928","AW GRIMES & W PFLUGERVILLE PKY","PFLUGERVILLE","TX","78664","US","2089928","<MISSING>","Sunoco Gas Stations","30.497465","-97.6564406","24hrs"
"https://www.sunoco.com","https://www.sunoco.com/find-a-station/station/3079472","Sunoco Retail Location #3079472","200 HWY 71 E","LLANO","TX","78643","US","3079472","3252471010","Sunoco Gas Stations","30.737088","-98.674094","24hrs"
"https://www.sunoco.com","https://www.sunoco.com/find-a-station/station/8560518","Sunoco Retail Location #8560518","2501 SOUTH WATER","BURNET","TX","78611","US","8560518","5127562521","Sunoco Gas Stations","30.738763","-98.23471","24hrs"
"https://www.sunoco.com","https://www.sunoco.com/find-a-station/station/4835807","Sunoco Retail Location #4835807","201 WEST HWY. 290","ELGIN","TX","78621","US","4835807","5122859893","Sunoco Gas Stations","30.338188","-97.371628","24hrs"
"https://www.sunoco.com","https://www.sunoco.com/find-a-station/station/7476948","Sunoco Retail Location #7476948","901 BESSEMER AVENUE","LLANO","TX","78643","US","7476948","3252474256","Sunoco Gas Stations","30.75982","-98.67571","24hrs"
"https://www.sunoco.com","https://www.sunoco.com/find-a-station/station/4260402","Sunoco Retail Location #4260402","708 N US HWY 77","SCHULENBURG","TX","78956","US","4260402","9797436148","Sunoco Gas Stations","29.694398","-96.903299","24hrs"
"https://www.sunoco.com","https://www.sunoco.com/find-a-station/station/7034754","Sunoco Retail Location #7034754","9512 CF HAWN FREEWAY","DALLAS","TX","75217","US","7034754","2143989920","Sunoco Gas Stations","32.703193","-96.657404","24hrs"
"https://www.sunoco.com","https://www.sunoco.com/find-a-station/station/7740756","Sunoco Retail Location #7740756","710 WEST PLEASANT RUN RD","LANCASTER","TX","75146","US","7740756","<MISSING>","Sunoco Gas Stations","32.604653","-96.7687749","24hrs"
"https://www.sunoco.com","https://www.sunoco.com/find-a-station/station/8567513","Sunoco Retail Location #8567513","6800 RANDOL MILL RD","ARLINGTON","TX","76011","US","8567513","<MISSING>","Sunoco Gas Stations","32.750713","-97.0401493","24hrs"
"https://www.sunoco.com","https://www.sunoco.com/find-a-station/station/8674897","Sunoco Retail Location #8674897","8015 GLENVIEW DRIVE","NORTH RICHLAND HILLS","TX","76180","US","8674897","<MISSING>","Sunoco Gas Stations","32.823963","-97.2077688","24hrs"
"https://www.sunoco.com","https://www.sunoco.com/find-a-station/station/6010052","Sunoco Retail Location #6010052","100 E KENNEDALE","KENNEDALE","TX","76060","US","6010052","<MISSING>","Sunoco Gas Stations","32.6461","-97.221155","24hrs"
"https://www.sunoco.com","https://www.sunoco.com/find-a-station/station/4367397","Sunoco Retail Location #4367397","1313 N CHURCH STREET","MCKINNEY","TX","75069","US","4367397","<MISSING>","Sunoco Gas Stations","33.213384","-96.6174094","06:00-24:00"
"https://www.sunoco.com","https://www.sunoco.com/find-a-station/station/7540255","Sunoco Retail Location #7540255","801 W NORTHSIDE DRIVE","FORT WORTH","TX","76164","US","7540255","<MISSING>","Sunoco Gas Stations","32.771617","-97.3522689","24hrs"
"https://www.sunoco.com","https://www.sunoco.com/find-a-station/station/4932976","Sunoco Retail Location #4932976","3601 HIGHWAY 114","JUSTIN","TX","76247","US","4932976","8172158500","Sunoco Gas Stations","33.03473","-97.32333","24hrs"
"https://www.sunoco.com","https://www.sunoco.com/find-a-station/station/6715007","Sunoco Retail Location #6715007","1401 MARKUM RANCH ROAD","FORT WORTH","TX","76126","US","6715007","<MISSING>","Sunoco Gas Stations","32.69125","-97.51932","24hrs"
"https://www.sunoco.com","https://www.sunoco.com/find-a-station/station/2165025","Sunoco Retail Location #2165025","511 NORTH HENDERSON","CLEBURNE","TX","76033","US","2165025","3166403619","Sunoco Gas Stations","32.346032","-97.3923884","06:00-24:00"
"https://www.sunoco.com","https://www.sunoco.com/find-a-station/station/698878","Sunoco Retail Location #698878","100 N. SEVEN POINTS BLVD","SEVEN POINTS","TX","75143","US","698878","9034322165","Sunoco Gas Stations","32.320886","-96.213944","05:00-23:00"
"https://www.sunoco.com","https://www.sunoco.com/find-a-station/station/1657642","Sunoco Retail Location #1657642","2704 FORT WORTH HWY","HUDSON OAKS TEXAS","TX","76087","US","1657642","<MISSING>","Sunoco Gas Stations","32.75665","-97.716815","24hrs"
"https://www.sunoco.com","https://www.sunoco.com/find-a-station/station/1786029","Sunoco Retail Location #1786029","2812 E. MAIN STREET","GUN BARREL CITY","TX","75147","US","1786029","8133347677","Sunoco Gas Stations","32.33061","-96.043183","24hrs"
"https://www.sunoco.com","https://www.sunoco.com/find-a-station/station/9844846","Sunoco Retail Location #9844846","1303 N BRAZOS ST (HWY 933)","WHITNEY","TX","76692","US","9844846","<MISSING>","Sunoco Gas Stations","31.96223","-97.323689","24hrs"
"https://www.sunoco.com","https://www.sunoco.com/find-a-station/station/2115871","Sunoco Retail Location #2115871","1406 NE BIG BEN TRAIL","GLEN ROSE","TX","76043","US","2115871","9724085236","Sunoco Gas Stations","32.246452","-97.7398822","06:00-24:00"
"https://www.sunoco.com","https://www.sunoco.com/find-a-station/station/5233028","Sunoco Retail Location #5233028","400 SW BIG BEND TRAIL","GLEN ROSE","TX","76043","US","5233028","<MISSING>","Sunoco Gas Stations","32.2351","-97.7639626","24hrs"
"https://www.sunoco.com","https://www.sunoco.com/find-a-station/station/6430276","Sunoco Retail Location #6430276","14000 S HWY 281/I-20","SANTO","TX","76472","US","6430276","9407692434","Sunoco Gas Stations","32.607752","-98.111156","24hrs"
"https://www.sunoco.com","https://www.sunoco.com/find-a-station/station/6147342","Sunoco Retail Location #6147342","337 S. MCLENNAN DR","ELM MOTT","TX","76640","US","6147342","2548292133","Sunoco Gas Stations","31.66857","-97.098739","24hrs"
"https://www.sunoco.com","https://www.sunoco.com/find-a-station/station/254029","Sunoco Retail Location #254029","9400 CHINA SPRING RD","WACO","TX","76708","US","254029","2547141114","Sunoco Gas Stations","31.626548","-97.22874","24hrs"
"https://www.sunoco.com","https://www.sunoco.com/find-a-station/station/9211228","Sunoco Retail Location #9211228","3612 BELLMEAD DRIVE","WACO","TX","76705","US","9211228","<MISSING>","Sunoco Gas Stations","31.5932088","-97.0972386","24hrs"
"https://www.sunoco.com","https://www.sunoco.com/find-a-station/station/9426552","Sunoco Retail Location #9426552","405 W TEXAS AVE","MART","TX","76664","US","9426552","<MISSING>","Sunoco Gas Stations","31.538448","-96.8407306","24hrs"
"https://www.sunoco.com","https://www.sunoco.com/find-a-station/station/1176536","Sunoco Retail Location #1176536","8526 HWY 6","WACO","TX","76712","US","1176536","2548482726","Sunoco Gas Stations","31.5814725","-97.3040625","24hrs"
"https://www.sunoco.com","https://www.sunoco.com/find-a-station/station/502773","Sunoco Retail Location #502773","2500 FRANKLIN AVE/20TH ST","WACO","TX","76710","US","502773","2547549488","Sunoco Gas Stations","31.539212","-97.149296","24hrs"
"https://www.sunoco.com","https://www.sunoco.com/find-a-station/station/9205998","Sunoco Retail Location #9205998","603 S VALLEY MILLS DRIVE","BEVERLY HILLS","TX","76711","US","9205998","2547521312","Sunoco Gas Stations","31.52611","-97.15434","24hrs"
"https://www.sunoco.com","https://www.sunoco.com/find-a-station/station/4957361","Sunoco Retail Location #4957361","2401 ROBINSON DR/HWY 77","WACO","TX","76710","US","4957361","2546629265","Sunoco Gas Stations","31.519526","-97.1312085","24hrs"
"https://www.sunoco.com","https://www.sunoco.com/find-a-station/station/5580220","Sunoco Retail Location #5580220","1710 NORTH GRAHAM STREET","STEPHENVILLE","TX","76401","US","5580220","2549683040","Sunoco Gas Stations","32.232101","-98.21065","24hrs"
"https://www.sunoco.com","https://www.sunoco.com/find-a-station/station/6632889","Sunoco Retail Location #6632889","611 N 1ST STR","MADILL","OK","73446","US","6632889","5807952275","Sunoco Gas Stations","34.097278","-96.775108","06:00-24:00"
"https://www.sunoco.com","https://www.sunoco.com/find-a-station/station/3096039","Sunoco Retail Location #3096039","1929 WEST WASHINGTON STREET","STEPHENVILLE","TX","76401","US","3096039","2549687040","Sunoco Gas Stations","32.21208","-98.22097","24hrs"
"https://www.sunoco.com","https://www.sunoco.com/find-a-station/station/1427889","Sunoco Retail Location #1427889","514 SUN VALLEY BLVD/FM2063","HEWITT","TX","76643","US","1427889","2546662259","Sunoco Gas Stations","31.462063","-97.1862006","24hrs"
"https://www.sunoco.com","https://www.sunoco.com/find-a-station/station/5414248","Sunoco Retail Location #5414248","106 E DEMPSEY ST.","BRYSON","TX","76427","US","5414248","<MISSING>","Sunoco Gas Stations","33.161547","-98.387348","24hrs"
"https://www.sunoco.com","https://www.sunoco.com/find-a-station/station/4045548","Sunoco Retail Location #4045548","100 MICHELIN ROAD","ARDMORE","OK","73401","US","4045548","<MISSING>","Sunoco Gas Stations","34.173328","-97.1758903","24hrs"
"https://www.sunoco.com","https://www.sunoco.com/find-a-station/station/6124879","Sunoco Retail Location #6124879","426 E. AUSTIN STREET","GIDDINGS","TX","78942","US","6124879","9795422889","Sunoco Gas Stations","30.181855","-96.933613","24hrs"
"https://www.sunoco.com","https://www.sunoco.com/find-a-station/station/5786785","Sunoco Retail Location #5786785","8089 TRIMMIER RD/STAGECOACH RD","KILLEEN","TX","76542","US","5786785","2545019539","Sunoco Gas Stations","31.05422","-97.748436","24hrs"
"https://www.sunoco.com","https://www.sunoco.com/find-a-station/station/7536840","Sunoco Retail Location #7536840","2210  E STAN SCHLUETER LOOP","KILLEEN","TX","76542","US","7536840","2546806960","Sunoco Gas Stations","31.069625","-97.72792","24hrs"
"https://www.sunoco.com","https://www.sunoco.com/find-a-station/station/5979612","Sunoco Retail Location #5979612","5001 S 31ST ST/WATERS DAIRY RD","TEMPLE","TX","76502","US","5979612","<MISSING>","Sunoco Gas Stations","31.053153","-97.3753676","24hrs"
"https://www.sunoco.com","https://www.sunoco.com/find-a-station/station/6054209","Sunoco Retail Location #6054209","1262 E HWY 190","COPPERAS COVE","TX","76522","US","6054209","2545181929","Sunoco Gas Stations","31.11968","-97.890112","24hrs"
"https://www.sunoco.com","https://www.sunoco.com/find-a-station/station/6037006","Sunoco Retail Location #6037006","6511 STATE HIGHWAY 317","TEMPLE","TX","76513","US","6037006","2547809600","Sunoco Gas Stations","31.116182","-97.4454956","24hrs"
"https://www.sunoco.com","https://www.sunoco.com/find-a-station/station/1996479","Sunoco Retail Location #1996479","801 NORTH KEY AVENUE","LAMPASAS","TX","76550","US","1996479","5125641459","Sunoco Gas Stations","31.073516","-98.18579","24hrs"
"https://www.sunoco.com","https://www.sunoco.com/find-a-station/station/3440997","Sunoco Retail Location #3440997","5511 W ADAMS AVE/KEGLEY RD","TEMPLE","TX","76502","US","3440997","2547731776","Sunoco Gas Stations","31.11293","-97.400795","24hrs"
"https://www.sunoco.com","https://www.sunoco.com/find-a-station/station/1290899","Sunoco Retail Location #1290899","4185 HWY 36 N","BRENHAM","TX","77833","US","1290899","9798360789","Sunoco Gas Stations","30.20958","-96.4179989","06:00-23:00"
"https://www.sunoco.com","https://www.sunoco.com/find-a-station/station/7126857","Sunoco Retail Location #7126857","606 WEST ALAMO","BRENHAM","TX","77833","US","7126857","9798364392","Sunoco Gas Stations","30.165594","-96.4051722","06:00-23:00"
"https://www.sunoco.com","https://www.sunoco.com/find-a-station/station/1449768","Sunoco Retail Location #1449768","606 WEST ALMO","BRENHAM","TX","77833","US","1449768","<MISSING>","Sunoco Gas Stations","30.16527","-96.4046934","24hrs"
"https://www.sunoco.com","https://www.sunoco.com/find-a-station/station/2157006","Sunoco Retail Location #2157006","2218 E MAIN ST (HWY84)","GATESVILLE","TX","76528","US","2157006","2542481087","Sunoco Gas Stations","31.434443","-97.7347498","24hrs"
"https://www.sunoco.com","https://www.sunoco.com/find-a-station/station/7174147","Sunoco Retail Location #7174147","1607 HWY 105","BRENHAM","TX","77833","US","7174147","<MISSING>","Sunoco Gas Stations","30.178032","-96.3854044","24hrs"
"https://www.sunoco.com","https://www.sunoco.com/find-a-station/station/5311873","Sunoco Retail Location #5311873","2000 SOUTH COLLEGE AVENUE","BRYAN","TX","77801","US","5311873","<MISSING>","Sunoco Gas Stations","30.649951","-96.366301","24hrs"
"https://www.sunoco.com","https://www.sunoco.com/find-a-station/station/808154","Sunoco Retail Location #808154","2050 HOLLEMAN DR. W","COLLEGE STA","TX","77840","US","808154","9796965301","Sunoco Gas Stations","30.587361","-96.3386442","24hrs"
"https://www.sunoco.com","https://www.sunoco.com/find-a-station/station/4415345","Sunoco Retail Location #4415345","NE CORNER OF WELLBORNE RD","COLLEGE STA","TX","77845","US","4415345","<MISSING>","Sunoco Gas Stations","30.596339","-96.3334543","24hrs"
"https://www.sunoco.com","https://www.sunoco.com/find-a-station/station/2175917","Sunoco Retail Location #2175917","13601 FM 2154 RD","COLLEGE STA","TX","77845","US","2175917","9796900261","Sunoco Gas Stations","30.559156","-96.30048","24hrs"
"https://www.sunoco.com","https://www.sunoco.com/find-a-station/station/6303978","Sunoco Retail Location #6303978","9009 HWY 290 EAST","CHAPPELL HILL","TX","77426","US","6303978","9798360513","Sunoco Gas Stations","30.135494","-96.2562739","24hrs"
"https://www.sunoco.com","https://www.sunoco.com/find-a-station/station/2738938","Sunoco Retail Location #2738938","4300 BOONVILLE ROAD","BRYAN","TX","77802","US","2738938","9797746175","Sunoco Gas Stations","30.661342","-96.302295","24hrs"
"https://www.sunoco.com","https://www.sunoco.com/find-a-station/station/9981465","Sunoco Retail Location #9981465","1780 GREENS PRAIRIE ROAD","COLLEGE STA","TX","77845","US","9981465","9796906268","Sunoco Gas Stations","30.552318","-96.265183","24hrs"
"https://www.sunoco.com","https://www.sunoco.com/find-a-station/station/3712411","Sunoco Retail Location #3712411","322 E. MAIN STREET","BELLVILLE","TX","77418","US","3712411","9798658256","Sunoco Gas Stations","29.949721","-96.2543601","24hrs"
"https://www.sunoco.com","https://www.sunoco.com/find-a-station/station/5223425","Sunoco Retail Location #5223425","2950 COLDSPRINGS RD","INDIANAPOLIS","IN","46222","US","5223425","3179200690","Sunoco Gas Stations","39.808722","-86.202892","05:00-22:00"
"https://www.sunoco.com","https://www.sunoco.com/find-a-station/station/28738","Sunoco Retail Location #28738","5208 WEST 10TH STREET","INDIANAPOLIS","IN","46224","US","28738","3172439790","Sunoco Gas Stations","39.78005","-86.24862","05:00-23:00"
"https://www.sunoco.com","https://www.sunoco.com/find-a-station/station/1493758","Sunoco Retail Location #1493758","3801 POST RD","INDIANAPOLIS","IN","46226","US","1493758","3178990901","Sunoco Gas Stations","39.82654","-86.009616","24hrs"
"https://www.sunoco.com","https://www.sunoco.com/find-a-station/station/4370193","Sunoco Retail Location #4370193","378 WESTERN BLVD","GREENWOOD","IN","46142","US","4370193","<MISSING>","Sunoco Gas Stations","39.619063","-86.2116805","05:00-24:00"
"https://www.sunoco.com","https://www.sunoco.com/find-a-station/station/7614084","Sunoco Retail Location #7614084","1065 SOUTH PARK DRIVE","GREENWOOD","IN","46143","US","7614084","3178851711","Sunoco Gas Stations","39.614684","-86.081301","05:00-23:00"
"https://www.sunoco.com","https://www.sunoco.com/find-a-station/station/5879002","Sunoco Retail Location #5879002","340 N US HWY 31","WHITELAND","IN","46184","US","5879002","3175352621","Sunoco Gas Stations","39.5556","-86.08928","05:00-01:00"
"https://www.sunoco.com","https://www.sunoco.com/find-a-station/station/7597826","Sunoco Retail Location #7597826","240 S. INDIANA AVE","MOORESVILLE","IN","46158","US","7597826","2608242220","Sunoco Gas Stations","39.61001","-86.37493","05:00-01:00"
"https://www.sunoco.com","https://www.sunoco.com/find-a-station/station/4284303","Sunoco Retail Location #4284303","170 S STATE ROAD 135","BARGERSVILLE","IN","46106","US","4284303","3174221880","Sunoco Gas Stations","39.518641","-86.158385","06:00-22:00"
"https://www.sunoco.com","https://www.sunoco.com/find-a-station/station/8780991","Sunoco Retail Location #8780991","20 N CHESTNUT STREET","MONROVIA","IN","46157","US","8780991","3179663838","Sunoco Gas Stations","39.579227","-86.4796705","05:00-01:00"
"https://www.sunoco.com","https://www.sunoco.com/find-a-station/station/9224528","Sunoco Retail Location #9224528","201 N. STATE STREET","LIZTON","IN","46149","US","9224528","3179446080","Sunoco Gas Stations","39.884818","-86.541516","05:00-23:00"
"https://www.sunoco.com","https://www.sunoco.com/find-a-station/station/6499735","Sunoco Retail Location #6499735","390 E MORGAN STREET","MARTINSVILLE","IN","46151","US","6499735","9173440290","Sunoco Gas Stations","39.428073","-86.4240494","24hrs"
"https://www.sunoco.com","https://www.sunoco.com/find-a-station/station/9747296","Sunoco Retail Location #9747296","2546 EAST STATE ROAD 44","SHELBYVILLE","IN","46176","US","9747296","8125222224","Sunoco Gas Stations","39.52444","-85.74062","05:00-24:00"
"https://www.sunoco.com","https://www.sunoco.com/find-a-station/station/4978318","Sunoco Retail Location #4978318","3622 ST RD 9N","ANDERSON","IN","46012","US","4978318","7656944477","Sunoco Gas Stations","40.078534","-85.652699","05:00-01:00"
"https://www.sunoco.com","https://www.sunoco.com/find-a-station/station/4498309","Sunoco Retail Location #4498309","20645 ST. RT. 46","HARTSVILLE","IN","47244","US","4498309","9162044511","Sunoco Gas Stations","39.267435","-85.699357","05:00-23:00"
"https://www.sunoco.com","https://www.sunoco.com/find-a-station/station/5594478","Sunoco Retail Location #5594478","603 BROAD STREET","NEW CASTLE","IN","47362","US","5594478","7659323224","Sunoco Gas Stations","39.93109","-85.3776622","24hrs"
"https://www.sunoco.com","https://www.sunoco.com/find-a-station/station/7867229","Sunoco Retail Location #7867229","901 N. SMITH ROAD","BLOOMINGTON","IN","47408","US","7867229","8123340266","Sunoco Gas Stations","39.17232","-86.482174","05:00-23:00"
"https://www.sunoco.com","https://www.sunoco.com/find-a-station/station/6704860","Sunoco Retail Location #6704860","CRAWFORSVILLE SUNOCO 2501 LAFAYETTE ROAD","CRAWFORDSVILLE","IN","47933","US","6704860","7653624770","Sunoco Gas Stations","40.074082","-86.906238","05:00-23:00"
"https://www.sunoco.com","https://www.sunoco.com/find-a-station/station/9303306","Sunoco Retail Location #9303306","1602 S WALNUT ST","BLOOMINGTON","IN","47401","US","9303306","8123337937","Sunoco Gas Stations","39.149438","-86.533651","24hrs"
"https://www.sunoco.com","https://www.sunoco.com/find-a-station/station/717124","Sunoco Retail Location #717124","732 MAIN STREET","LINDEN","IN","47955","US","717124","7653394222","Sunoco Gas Stations","40.195528","-86.904716","05:00-23:00"
"https://www.sunoco.com","https://www.sunoco.com/find-a-station/station/6587877","Sunoco Retail Location #6587877","2601 N. WASHINGTON STREET","KOKOMO","IN","46901","US","6587877","7654598803","Sunoco Gas Stations","40.51268","-86.13377","06:00-00:00"
"https://www.sunoco.com","https://www.sunoco.com/find-a-station/station/8949794","Sunoco Retail Location #8949794","1100 N FOREST AVENUE","BRAZIL","IN","47834","US","8949794","8123914590","Sunoco Gas Stations","39.533099","-87.1252882","24hrs"
"https://www.sunoco.com","https://www.sunoco.com/find-a-station/station/4759486","Sunoco Retail Location #4759486","103 WEST MAIN STREET","GAS CITY","IN","46933","US","4759486","7656771477","Sunoco Gas Stations","40.487638","-85.615434","06:00-24:00"
"https://www.sunoco.com","https://www.sunoco.com/find-a-station/station/3082617","Sunoco Retail Location #3082617","3801 S WESTERN AVENUE","MARION","IN","46952","US","3082617","7656741360","Sunoco Gas Stations","40.52233","-85.6729642","24hrs"
"https://www.sunoco.com","https://www.sunoco.com/find-a-station/station/1429380","Sunoco Retail Location #1429380","P O BOX 336  GASTON IN  47342 504 INDIANA AVE","EATON","IN","47338","US","1429380","7653963475","Sunoco Gas Stations","40.33849","-85.35103","06:00-21:00"
"https://www.sunoco.com","https://www.sunoco.com/find-a-station/station/2226587","Sunoco Retail Location #2226587","3035 S. WESTERN AVENUE","MARION","IN","46953","US","2226587","7656621110","Sunoco Gas Stations","40.533383","-85.673699","24hrs"
"https://www.sunoco.com","https://www.sunoco.com/find-a-station/station/1367739","Sunoco Retail Location #1367739","765 N. STATE STREET","NORTH VERNON","IN","47265","US","1367739","8123527581","Sunoco Gas Stations","39.011189","-85.636102","06:00-24:00"
"https://www.sunoco.com","https://www.sunoco.com/find-a-station/station/2277622","Sunoco Retail Location #2277622","2403 W 2ND STREET","MARION","IN","46952","US","2277622","7656629640","Sunoco Gas Stations","40.56033","-85.69312","06:00-24:00"
"https://www.sunoco.com","https://www.sunoco.com/find-a-station/station/4727046","Sunoco Retail Location #4727046","280 N. MAIN STREET","UPLAND","IN","46989","US","4727046","7659980840","Sunoco Gas Stations","40.4771","-85.49456","06:00-24:00"
"https://www.sunoco.com","https://www.sunoco.com/find-a-station/station/7383698","Sunoco Retail Location #7383698","303 W. MAIN STREET","DELPHI","IN","46923","US","7383698","7655644015","Sunoco Gas Stations","40.58534","-86.67618","05:00-22:00"
"https://www.sunoco.com","https://www.sunoco.com/find-a-station/station/2801108","Sunoco Retail Location #2801108","7890 E. WABASH AVENUE","TERRE HAUTE","IN","47803","US","2801108","8128779418","Sunoco Gas Stations","39.48814","-87.29554","05:00-01:00"
"https://www.sunoco.com","https://www.sunoco.com/find-a-station/station/6548648","Sunoco Retail Location #6548648","QUICK STOP 2507 16TH STREET","BEDFORD","IN","47421","US","6548648","8122769495","Sunoco Gas Stations","38.861232","-86.5059158","05:00-24:00"
"https://www.sunoco.com","https://www.sunoco.com/find-a-station/station/2709913","Sunoco Retail Location #2709913","436 MICHIGAN AVE.","LOGANSPORT","IN","46947","US","2709913","5747530108","Sunoco Gas Stations","40.758925","-86.364421","24hrs"
"https://www.sunoco.com","https://www.sunoco.com/find-a-station/station/4573952","Sunoco Retail Location #4573952","408 S 7TH ST","TERRE HAUTE","IN","47807","US","4573952","8122358788","Sunoco Gas Stations","39.462084","-87.406763","24hrs"
"https://www.sunoco.com","https://www.sunoco.com/find-a-station/station/2709889","Sunoco Retail Location #2709889","1607 N. THIRD ST.","LOGANSPORT","IN","46947","US","2709889","5747222532","Sunoco Gas Stations","40.767472","-86.374041","05:00-23:00"
"https://www.sunoco.com","https://www.sunoco.com/find-a-station/station/9650144","Sunoco Retail Location #9650144","2601 S. 3RD STREET","TERRE HAUTE","IN","47802","US","9650144","6363734670","Sunoco Gas Stations","39.438879","-87.4140527","06:00-22:00"
"https://www.sunoco.com","https://www.sunoco.com/find-a-station/station/4573960","Sunoco Retail Location #4573960","4501 SOUTH 7TH STREET","TERRE HAUTE","IN","47802","US","4573960","8122350410","Sunoco Gas Stations","39.41239","-87.40688","24hrs"
"https://www.sunoco.com","https://www.sunoco.com/find-a-station/station/803742","Sunoco Retail Location #803742","5801 NATIONAL RD EAST","RICHMOND","IN","47374","US","803742","7657808007","Sunoco Gas Stations","39.83279","-84.82349","06:00-23:00"
"https://www.sunoco.com","https://www.sunoco.com/find-a-station/station/3404910","Sunoco Retail Location #3404910","620 W. HUNTINGTON STREET","MONTPELIER","IN","47359","US","3404910","7657282522","Sunoco Gas Stations","40.55469","-85.28875","24hrs"
"https://www.sunoco.com","https://www.sunoco.com/find-a-station/station/4573978","Sunoco Retail Location #4573978","2900 S ST RD 63 & HONEY CREEK","TERRE HAUTE","IN","47802","US","4573978","6363734670","Sunoco Gas Stations","39.43191","-87.42944","05:00-23:00"
"https://www.sunoco.com","https://www.sunoco.com/find-a-station/station/4848735","Sunoco Retail Location #4848735","28204 ST. RT. 1","ST LEON","IN","47012","US","4848735","5133679900","Sunoco Gas Stations","39.28029","-84.96022","05:00-01:00"
"https://www.sunoco.com","https://www.sunoco.com/find-a-station/station/8979957","Sunoco Retail Location #8979957","606 S WASHINGTON ST","NEW PARIS","OH","45347","US","8979957","9374371661","Sunoco Gas Stations","39.851508","-84.792699","06:00-23:00"
"https://www.sunoco.com","https://www.sunoco.com/find-a-station/station/8091415","Sunoco Retail Location #8091415","13200 SOUTH US HWY 41","TERRE HAUTE","IN","47802","US","8091415","8122988711","Sunoco Gas Stations","39.306531","-87.387916","05:00-23:00"
"https://www.sunoco.com","https://www.sunoco.com/find-a-station/station/1565449","Sunoco Retail Location #1565449","118 DOWLING STREET","AUSTIN","IN","47102","US","1565449","8127498776","Sunoco Gas Stations","38.739864","-85.822089","24hrs"
"https://www.sunoco.com","https://www.sunoco.com/find-a-station/station/9274481","Sunoco Retail Location #9274481","789 A STREET NE","LINTON","IN","47441","US","9274481","8128478160","Sunoco Gas Stations","39.035882","-87.157592","05:00-01:00"
"https://www.sunoco.com","https://www.sunoco.com/find-a-station/station/4573994","Sunoco Retail Location #4573994","11631 N US HWY 41","FARMERSBURG","IN","47850","US","4573994","8126962712","Sunoco Gas Stations","39.2537","-87.388999","05:00-23:00"
"https://www.sunoco.com","https://www.sunoco.com/find-a-station/station/728659","Sunoco Retail Location #728659","7590 S WARREN ROAD","WARREN","IN","46792","US","728659","2603752503","Sunoco Gas Stations","40.717235","-85.4367513","05:00-24:00"
"https://www.sunoco.com","https://www.sunoco.com/find-a-station/station/4672069","Sunoco Retail Location #4672069","5284 COLLEGE CORNER PIKE","OXFORD","OH","45056","US","4672069","9373719847","Sunoco Gas Stations","39.5203","-84.75933","24hrs"
"https://www.sunoco.com","https://www.sunoco.com/find-a-station/station/4573986","Sunoco Retail Location #4573986","708 N WALNUT","SHELBURN","IN","47879","US","4573986","8123972604","Sunoco Gas Stations","39.185531","-87.397617","05:00-23:00"
"https://www.sunoco.com","https://www.sunoco.com/find-a-station/station/3676749","Sunoco Retail Location #3676749","6959 N US HWY 41","SHELBURN","IN","47879","US","3676749","8123975995","Sunoco Gas Stations","39.186129","-87.399162","05:00-23:00"
"https://www.sunoco.com","https://www.sunoco.com/find-a-station/station/5195359","Sunoco Retail Location #5195359","1393 KINGS ROAD","JACKSONVILLE","FL","32209","US","5195359","9043545002","Sunoco Gas Stations","30.34167","-81.67761","05:00-24:00"
"https://www.sunoco.com","https://www.sunoco.com/find-a-station/station/6246078","Sunoco Retail Location #6246078","1922 KINGS RD","JACKSONVILLE","FL","32209","US","6246078","9043533688","Sunoco Gas Stations","30.34633","-81.68919","06:00-24:00"
"https://www.sunoco.com","https://www.sunoco.com/find-a-station/station/8270779","Sunoco Retail Location #8270779","2990 RAYFORD STREET","JACKSONVILLE","FL","32205","US","8270779","9043533688","Sunoco Gas Stations","30.32073","-81.70529","24hrs"
"https://www.sunoco.com","https://www.sunoco.com/find-a-station/station/1008507","Sunoco Retail Location #1008507","6706 N MAIN STREET","JACKSONVILLE","FL","32208","US","1008507","3216310245","Sunoco Gas Stations","30.38086","-81.65008","24hrs"
"https://www.sunoco.com","https://www.sunoco.com/find-a-station/station/6468078","Sunoco Retail Location #6468078","3621 PARK STREET","JACKSONVILLE","FL","32205","US","6468078","3216900807","Sunoco Gas Stations","30.300907","-81.709648","06:00-23:00"
"https://www.sunoco.com","https://www.sunoco.com/find-a-station/station/6560957","Sunoco Retail Location #6560957","6010 MONCRIEF ROAD","JACKSONVILLE","FL","32209","US","6560957","9045037395","Sunoco Gas Stations","30.38064","-81.69558","06:00-24:00"
"https://www.sunoco.com","https://www.sunoco.com/find-a-station/station/1621333","Sunoco Retail Location #1621333","551 CASSAT AVE","JACKSONVILLE","FL","32205","US","1621333","9043885134","Sunoco Gas Stations","30.31841","-81.73002","24hrs"
"https://www.sunoco.com","https://www.sunoco.com/find-a-station/station/4941829","Sunoco Retail Location #4941829","4238 UNIVERSITY BLVD","JACKSONVILLE","FL","32216","US","4941829","9043533688","Sunoco Gas Stations","30.279948","-81.603019","06:00-24:00"
"https://www.sunoco.com","https://www.sunoco.com/find-a-station/station/4414033","Sunoco Retail Location #4414033","7961 ARLINGTON EXPRESSWAY","JACKSONVILLE","FL","32211","US","4414033","<MISSING>","Sunoco Gas Stations","30.32788","-81.57337","07:00-23:00"
"https://www.sunoco.com","https://www.sunoco.com/find-a-station/station/1825579","Sunoco Retail Location #1825579","1266 CASSAT AVE","JACKSONVILLE","FL","32205","US","1825579","9047861561","Sunoco Gas Stations","30.301038","-81.730731","06:30-23:00"
"https://www.sunoco.com","https://www.sunoco.com/find-a-station/station/9309345","Sunoco Retail Location #9309345","4586 SAN JUAN AVE","JACKSONVILLE","FL","32209","US","9309345","9043895883","Sunoco Gas Stations","30.28256","-81.72356","24hrs"
"https://www.sunoco.com","https://www.sunoco.com/find-a-station/station/6484992","Sunoco Retail Location #6484992","8310 BEACH BLVD","JACKSONVILLE","FL","32216","US","6484992","9047235525","Sunoco Gas Stations","30.2879","-81.573841","24hrs"
"https://www.sunoco.com","https://www.sunoco.com/find-a-station/station/9373341","Sunoco Retail Location #9373341","6409 SAN JUAN AVE","JACKSONVILLE","FL","32210","US","9373341","9043868603","Sunoco Gas Stations","30.28213","-81.74803","24hrs"
"https://www.sunoco.com","https://www.sunoco.com/find-a-station/station/5962246","Sunoco Retail Location #5962246","1052 DUNN AVE","JACKSONVILLE","FL","32209","US","5962246","9046830791","Sunoco Gas Stations","30.42954","-81.662283","24hrs"
"https://www.sunoco.com","https://www.sunoco.com/find-a-station/station/4628699","Sunoco Retail Location #4628699","1879 S LANE AVE","JACKSONVILLE","FL","32099","US","4628699","9043789577","Sunoco Gas Stations","30.28549","-81.75525","24hrs"
"https://www.sunoco.com","https://www.sunoco.com/find-a-station/station/7140320","Sunoco Retail Location #7140320","4023 SOUTHSIDE BLVD.","JACKSONVILLE","FL","32216","US","7140320","9045450679","Sunoco Gas Stations","30.274545","-81.55853","06:00-24:00"
"https://www.sunoco.com","https://www.sunoco.com/find-a-station/station/6703235","Sunoco Retail Location #6703235","5406 TIMUQUANA ROAD","JACKSONVILLE","FL","32210","US","6703235","<MISSING>","Sunoco Gas Stations","30.24745","-81.72266","24hrs"
"https://www.sunoco.com","https://www.sunoco.com/find-a-station/station/4062774","Sunoco Retail Location #4062774","5406 TIMUQUANA ROAD","JACKSONVILLE","FL","32210","US","4062774","9047718956","Sunoco Gas Stations","30.24704","-81.7226575","06:00-23:00"
"https://www.sunoco.com","https://www.sunoco.com/find-a-station/station/9020389","Sunoco Retail Location #9020389","605 NEW BERLIN ROAD","JACKSONVILLE","FL","32218","US","9020389","9043743464","Sunoco Gas Stations","30.46696","-81.62589","07:00-23:00"
"https://www.sunoco.com","https://www.sunoco.com/find-a-station/station/9469669","Sunoco Retail Location #9469669","8204 103RD STREET","JACKSONVILLE","FL","32221","US","9469669","9047774233","Sunoco Gas Stations","30.24798","-81.78572","24hrs"
"https://www.sunoco.com","https://www.sunoco.com/find-a-station/station/591446","Sunoco Retail Location #591446","14670 DUVAL ROAD","JACKSONVILLE","FL","32218","US","591446","9045450679","Sunoco Gas Stations","30.48168","-81.646952","06:00-24:00"
"https://www.sunoco.com","https://www.sunoco.com/find-a-station/station/6975106","Sunoco Retail Location #6975106","14190 BEACH BLVD","JACKSONVILLE","FL","32216","US","6975106","9042230486","Sunoco Gas Stations","30.287467","-81.442297","24hrs"
"https://www.sunoco.com","https://www.sunoco.com/find-a-station/station/241935","Sunoco Retail Location #241935","1633 CR 210  WEST","JACKSONVILLE","FL","32259","US","241935","9048245140","Sunoco Gas Stations","30.0654185","-81.4953494","24hrs"
"https://www.sunoco.com","https://www.sunoco.com/find-a-station/station/1080621","Sunoco Retail Location #1080621","463152 SR 200","YULEE","FL","32097","US","1080621","9042255551","Sunoco Gas Stations","30.63175","-81.601481","05:00-24:00"
"https://www.sunoco.com","https://www.sunoco.com/find-a-station/station/8338444","Sunoco Retail Location #8338444","8788 US HWY 301 SOUTH","JACKSONVILLE","FL","32234","US","8338444","9043272589","Sunoco Gas Stations","30.1966","-82.01678","05:00-24:00"
"https://www.sunoco.com","https://www.sunoco.com/find-a-station/station/234872","Sunoco Retail Location #234872","1604 IDLE WILD AVENUE","GREEN COVE SPRINGS","FL","32043","US","234872","9045299738","Sunoco Gas Stations","29.986033","-81.69661","06:00-24:00"
"https://www.sunoco.com","https://www.sunoco.com/find-a-station/station/6252282","Sunoco Retail Location #6252282","915 DILWORTH STREET","ST MARYS","GA","31558","US","6252282","9124674603","Sunoco Gas Stations","30.73509","-81.55656","06:00-24:00"
"https://www.sunoco.com","https://www.sunoco.com/find-a-station/station/7727399","Sunoco Retail Location #7727399","1875 CHARLIE SMITH HWY","ST MARYS","GA","31558","US","7727399","9124674615","Sunoco Gas Stations","30.74349","-81.55469","06:00-24:00"
"https://www.sunoco.com","https://www.sunoco.com/find-a-station/station/2174779","Sunoco Retail Location #2174779","100 ALEX DRIVE","ST MARYS","GA","31558","US","2174779","9126737474","Sunoco Gas Stations","30.75341","-81.588198","06:00-24:00"
"https://www.sunoco.com","https://www.sunoco.com/find-a-station/station/6010888","Sunoco Retail Location #6010888","946 POINT PETER ROAD","ST MARYS","GA","31558","US","6010888","9126736305","Sunoco Gas Stations","30.76389","-81.54992","06:00-24:00"
"https://www.sunoco.com","https://www.sunoco.com/find-a-station/station/1015791","Sunoco Retail Location #1015791","2800 COLERAIN ROAD","ST MARYS","GA","31558","US","1015791","9126737474","Sunoco Gas Stations","30.76999","-81.5765","06:00-24:00"
"https://www.sunoco.com","https://www.sunoco.com/find-a-station/station/6435309","Sunoco Retail Location #6435309","599 CLARKS BLUFF RD","KINGSLAND","GA","31548","US","6435309","9127296006","Sunoco Gas Stations","30.78139","-81.70513","06:00-24:00"
"https://www.sunoco.com","https://www.sunoco.com/find-a-station/station/524736","Sunoco Retail Location #524736","3380 HIGHWAY 40","KINGSLAND","GA","31548","US","524736","9127293048","Sunoco Gas Stations","30.78616","-81.64385","06:00-24:00"
"https://www.sunoco.com","https://www.sunoco.com/find-a-station/station/8749129","Sunoco Retail Location #8749129","1371 HIGHWAY 40 EAST","KINGSLAND","GA","31548","US","8749129","9126736308","Sunoco Gas Stations","30.789218","-81.652114","06:00-24:00"
"https://www.sunoco.com","https://www.sunoco.com/find-a-station/station/1648435","Sunoco Retail Location #1648435","6023 KINGSLEY LAKE DRIVE","STARKE","FL","32091","US","1648435","9045332130","Sunoco Gas Stations","29.981554","-81.996482","06:00-24:00"
"https://www.sunoco.com","https://www.sunoco.com/find-a-station/station/5719075","Sunoco Retail Location #5719075","500 SOUTH LEE STREET","KINGSLAND","GA","31548","US","5719075","9127296008","Sunoco Gas Stations","30.79473","-81.68916","07:30-21:00"
"https://www.sunoco.com","https://www.sunoco.com/find-a-station/station/8668048","Sunoco Retail Location #8668048","2199 N. PONCE DELEON BLVD.","ST AUGUSTINE","FL","32084","US","8668048","9048260701","Sunoco Gas Stations","29.91273","-81.32312","24hrs"
"https://www.sunoco.com","https://www.sunoco.com/find-a-station/station/8903270","Sunoco Retail Location #8903270","450 S. PONCE DE LEON BLVD","ST AUGUSTINE","FL","32084","US","8903270","7739680330","Sunoco Gas Stations","29.884146","-81.324773","05:00-24:00"
"https://www.sunoco.com","https://www.sunoco.com/find-a-station/station/651638","Sunoco Retail Location #651638","800 S. WALNUT ST","STARKE","FL","32091","US","651638","9043689140","Sunoco Gas Stations","29.9381036","-82.11168","06:00-23:00"
"https://www.sunoco.com","https://www.sunoco.com/find-a-station/station/612838","Sunoco Retail Location #612838","7326 SE 9TH AVE","STARKE","FL","32091","US","612838","3215143553","Sunoco Gas Stations","29.823075","-82.059171","06:00-24:00"
"https://www.sunoco.com","https://www.sunoco.com/find-a-station/station/6895627","Sunoco Retail Location #6895627","5754 NAVARREVE AVE","HAMPTON","FL","32044","US","6895627","3219617776","Sunoco Gas Stations","29.864166","-82.1352694","06:00-22:00"
"https://www.sunoco.com","https://www.sunoco.com/find-a-station/station/6162432","Sunoco Retail Location #6162432","2600 REID STREET","PALATKA","FL","32177","US","6162432","3863280043","Sunoco Gas Stations","29.65621","-81.65834","24hrs"
"https://www.sunoco.com","https://www.sunoco.com/find-a-station/station/7756133","Sunoco Retail Location #7756133","167 SOUTH US HWY 17","EAST PALATKA","FL","32131","US","7756133","3863298480","Sunoco Gas Stations","29.64403","-81.605491","06:00-24:00"
"https://www.sunoco.com","https://www.sunoco.com/find-a-station/station/4917605","Sunoco Retail Location #4917605","276 S HIGHWAY 17","EAST PALATKA","FL","32131","US","4917605","3863264470","Sunoco Gas Stations","29.64251","-81.5916","06:00-22:00"
"https://www.sunoco.com","https://www.sunoco.com/find-a-station/station/2783579","Sunoco Retail Location #2783579","10095 US 1 S","ST AUGUSTINE","FL","32086","US","2783579","3525214038","Sunoco Gas Stations","29.659602","-81.287872","06:00-09:00"
"https://www.sunoco.com","https://www.sunoco.com/find-a-station/station/3649571","Sunoco Retail Location #3649571","2764 US HWY 17 S","BRUNSWICK","GA","31523","US","3649571","9122758532","Sunoco Gas Stations","31.13651","-81.57156","01:00-24:00"
"https://www.sunoco.com","https://www.sunoco.com/find-a-station/station/9728908","Sunoco Retail Location #9728908","923 SE STATE ROAD 100","LAKE CITY","FL","32025","US","9728908","3867545551","Sunoco Gas Stations","30.17918","-82.5934","05:00-22:00"
"https://www.sunoco.com","https://www.sunoco.com/find-a-station/station/8718249","Sunoco Retail Location #8718249","3554 N US HWY 441","LAKE CITY","FL","32055","US","8718249","3867192065","Sunoco Gas Stations","30.2406","-82.63867","06:00-23:00"
"https://www.sunoco.com","https://www.sunoco.com/find-a-station/station/4176947","Sunoco Retail Location #4176947","2222 NE WALDO ROAD","GAINESVILLE","FL","32609","US","4176947","3216900807","Sunoco Gas Stations","29.67312","-82.29748","06:00-23:00"
"https://www.sunoco.com","https://www.sunoco.com/find-a-station/station/7537509","Sunoco Retail Location #7537509","11921 NW US HWY 441","ALACHUA","FL","32653","US","7537509","3864621301","Sunoco Gas Stations","29.764732","-82.407776","05:00-23:00"
"https://www.sunoco.com","https://www.sunoco.com/find-a-station/station/3147634","Sunoco Retail Location #3147634","1010 HARMON AVENUE","COLUMBUS","OH","43223","US","3147634","6144438432","Sunoco Gas Stations","39.939341","-83.0143379","24:00-24:00"
"https://www.sunoco.com","https://www.sunoco.com/find-a-station/station/7705452","Sunoco Retail Location #7705452","1102 WEST MOUND STREET","COLUMBUS","OH","43223","US","7705452","6142284009","Sunoco Gas Stations","39.948089","-83.027996","05:00-01:00"
"https://www.sunoco.com","https://www.sunoco.com/find-a-station/station/9308263","Sunoco Retail Location #9308263","849 E 5TH AVE","COLUMBUS","OH","43201","US","9308263","6142917514","Sunoco Gas Stations","39.9862","-82.982099","24hrs"
"https://www.sunoco.com","https://www.sunoco.com/find-a-station/station/5047121","Sunoco Retail Location #5047121","1536 WEST BROAD","COLUMBUS","OH","43222","US","5047121","6142763707","Sunoco Gas Stations","39.957505","-83.041396","24hrs"
"https://www.sunoco.com","https://www.sunoco.com/find-a-station/station/2265585","Sunoco Retail Location #2265585","1690 S. HIGH STREET","COLUMBUS","OH","43207","US","2265585","6144431008","Sunoco Gas Stations","39.927552","-82.995331","06:00-24:00"
"https://www.sunoco.com","https://www.sunoco.com/find-a-station/station/1482090","Sunoco Retail Location #1482090","648 GRANDVIEW AVENUE","COLUMBUS","OH","43215","US","1482090","6144882464","Sunoco Gas Stations","39.97091","-83.04591","06:00-24:00"
"https://www.sunoco.com","https://www.sunoco.com/find-a-station/station/7276298","Sunoco Retail Location #7276298","993 KING AVENUE","COLUMBUS","OH","43212","US","7276298","6142940141","Sunoco Gas Stations","39.990808","-83.0332616","05:00-24:00"
"https://www.sunoco.com","https://www.sunoco.com/find-a-station/station/4380507","Sunoco Retail Location #4380507","1711 LOCKBOURNE ROAD","COLUMBUS","OH","43207","US","4380507","6144430135","Sunoco Gas Stations","39.930564","-82.965005","05:00-23:00"
"https://www.sunoco.com","https://www.sunoco.com/find-a-station/station/5346440","Sunoco Retail Location #5346440","1535 ALUM CREEK DRIVE","COLUMBUS","OH","43209","US","5346440","6142527680","Sunoco Gas Stations","39.940363","-82.943581","24hrs"
"https://www.sunoco.com","https://www.sunoco.com/find-a-station/station/5412804","Sunoco Retail Location #5412804","1905 CLEVELAND AVE","COLUMBUS","OH","43211","US","5412804","6144211299","Sunoco Gas Stations","40.005109","-82.972678","24hrs"
"https://www.sunoco.com","https://www.sunoco.com/find-a-station/station/591560","Sunoco Retail Location #591560","2281 SULLIVANT AVE","COLUMBUS","OH","43223","US","591560","6143708733","Sunoco Gas Stations","39.946068","-83.059789","24hrs"
"https://www.sunoco.com","https://www.sunoco.com/find-a-station/station/3644465","Sunoco Retail Location #3644465","2570 NORTH HIGH STREET","COLUMBUS","OH","43202","US","3644465","6142613660","Sunoco Gas Stations","40.01482","-83.01142","06:00-24:00"
"https://www.sunoco.com","https://www.sunoco.com/find-a-station/station/8145542","Sunoco Retail Location #8145542","2725 W. BROAD STREET","COLUMBUS","OH","43204","US","8145542","9374266670","Sunoco Gas Stations","39.95499","-83.07331","06:00-23:00"
"https://www.sunoco.com","https://www.sunoco.com/find-a-station/station/7430408","Sunoco Retail Location #7430408","1799 E HUDSON","COLUMBUS","OH","43211","US","7430408","6144211299","Sunoco Gas Stations","40.013414","-82.961623","24hrs"
"https://www.sunoco.com","https://www.sunoco.com/find-a-station/station/3805173","Sunoco Retail Location #3805173","2825 OLENTANGY RIVER RD","COLUMBUS","OH","43202","US","3805173","6142615683","Sunoco Gas Stations","40.01848","-83.02394","05:00-23:00"
"https://www.sunoco.com","https://www.sunoco.com/find-a-station/station/3276151","Sunoco Retail Location #3276151","3034 E. BROAD STREET","COLUMBUS","OH","43209","US","3276151","6142367635","Sunoco Gas Stations","39.971269","-82.920387","24hrs"
"https://www.sunoco.com","https://www.sunoco.com/find-a-station/station/1463587","Sunoco Retail Location #1463587","1814 HARRISBURG PIKE","COLUMBUS","OH","43223","US","1463587","9376040012","Sunoco Gas Stations","39.92155","-83.0606143","05:00-24:00"
"https://www.sunoco.com","https://www.sunoco.com/find-a-station/station/3284429","Sunoco Retail Location #3284429","3172 E. LIVINGSTON AVE","COLUMBUS","OH","43227","US","3284429","6142364176","Sunoco Gas Stations","39.9467","-82.911618","06:00-23:00"
"https://www.sunoco.com","https://www.sunoco.com/find-a-station/station/3878089","Sunoco Retail Location #3878089","3317 CLEVELAND AVE","COLUMBUS","OH","43224","US","3878089","6142637440","Sunoco Gas Stations","40.035002","-82.963515","06:00-23:00"
"https://www.sunoco.com","https://www.sunoco.com/find-a-station/station/3757028","Sunoco Retail Location #3757028","2280 STELZER RD.","COLUMBUS","OH","43215","US","3757028","6144147864","Sunoco Gas Stations","40.01982","-82.91137","06:00-23:00"
"https://www.sunoco.com","https://www.sunoco.com/find-a-station/station/3878071","Sunoco Retail Location #3878071","4600 E MAIN ST","COLUMBUS","OH","43213","US","3878071","6148665127","Sunoco Gas Stations","39.955436","-82.875565","05:00-23:00"
"https://www.sunoco.com","https://www.sunoco.com/find-a-station/station/3878063","Sunoco Retail Location #3878063","4425 E LIVINGSTON AVE","COLUMBUS","OH","43227","US","3878063","6145752625","Sunoco Gas Stations","39.944759","-82.877141","24hrs"
"https://www.sunoco.com","https://www.sunoco.com/find-a-station/station/7431232","Sunoco Retail Location #7431232","2375 STRINGTOWN ROAD","GROVE CITY","OH","43123","US","7431232","6148010310","Sunoco Gas Stations","39.879919","-83.065673","24hrs"
"https://www.sunoco.com","https://www.sunoco.com/find-a-station/station/6165245","Sunoco Retail Location #6165245","4875 W. BROAD STREET","COLUMBUS","OH","43228","US","6165245","6148781106","Sunoco Gas Stations","39.95214","-83.13103","24hrs"
"https://www.sunoco.com","https://www.sunoco.com/find-a-station/station/695742","Sunoco Retail Location #695742","4840 SINCLAIR ROAD","COLUMBUS","OH","43229","US","695742","6148858104","Sunoco Gas Stations","40.063","-82.998499","05:30-22:00"
"https://www.sunoco.com","https://www.sunoco.com/find-a-station/station/3814860","Sunoco Retail Location #3814860","300 HILLARD ROME ROAD","COLUMBUS","OH","43228","US","3814860","5132915466","Sunoco Gas Stations","39.95825","-83.145127","05:00-01:00"
"https://www.sunoco.com","https://www.sunoco.com/find-a-station/station/9383738","Sunoco Retail Location #9383738","552 NORTON ROAD","COLUMBUS","OH","43228","US","9383738","6148703440","Sunoco Gas Stations","39.940122","-83.14302","06:00-22:00"
"https://www.sunoco.com","https://www.sunoco.com/find-a-station/station/3716909","Sunoco Retail Location #3716909","2122 HENDERSON RD","COLUMBUS","OH","43220","US","3716909","6144590149","Sunoco Gas Stations","40.057665","-83.075712","06:00-01:00"
"https://www.sunoco.com","https://www.sunoco.com/find-a-station/station/9284597","Sunoco Retail Location #9284597","5346 SINCLAIR RD","COLUMBUS","OH","43229","US","9284597","9373719847","Sunoco Gas Stations","40.07467","-82.99796","06:00-22:00"
"https://www.sunoco.com","https://www.sunoco.com/find-a-station/station/2857282","Sunoco Retail Location #2857282","1886 TAMARACT CIRCLE  SOUTH","COLUMBUS","OH","43229","US","2857282","9372316007","Sunoco Gas Stations","40.07547","-82.96748","07:00-21:00"
"https://www.sunoco.com","https://www.sunoco.com/find-a-station/station/7708449","Sunoco Retail Location #7708449","4537 SCOTO DARBY ROAD","HILLIARD","OH","43026","US","7708449","6147711381","Sunoco Gas Stations","40.018204","-83.136024","05:30-23:00"
"https://www.sunoco.com","https://www.sunoco.com/find-a-station/station/4466835","Sunoco Retail Location #4466835","1623 DUBLIN-GRANVILLE RD","COLUMBUS","OH","43229","US","4466835","6148466966","Sunoco Gas Stations","40.086662","-82.974916","24hrs"
"https://www.sunoco.com","https://www.sunoco.com/find-a-station/station/3716917","Sunoco Retail Location #3716917","6201 E. LIVINGSTON AVE.","REYNOLDSBURG","OH","43068","US","3716917","6148630607","Sunoco Gas Stations","39.942098","-82.829871","24hrs"
"https://www.sunoco.com","https://www.sunoco.com/find-a-station/station/1222546","Sunoco Retail Location #1222546","4387 ORDERS ROAD","GROVE CITY","OH","43123","US","1222546","6148752007","Sunoco Gas Stations","39.860582","-83.11155","06:00-23:00"
"https://www.sunoco.com","https://www.sunoco.com/find-a-station/station/684498","Sunoco Retail Location #684498","5800 CLEVELAND AVENUE","COLUMBUS","OH","43231","US","684498","6145230694","Sunoco Gas Stations","40.089064","-82.950752","24hrs"
"https://www.sunoco.com","https://www.sunoco.com/find-a-station/station/567180","Sunoco Retail Location #567180","4144 MAIN STREET","HILLIARD","OH","43026","US","567180","6143326806","Sunoco Gas Stations","40.036435","-83.156436","06:00-23:00"
"https://www.sunoco.com","https://www.sunoco.com/find-a-station/station/7873086","Sunoco Retail Location #7873086","7098 E. MAIN STREET","REYNOLDSBURG","OH","43068","US","7873086","6148614222","Sunoco Gas Stations","39.955192","-82.808637","05:30-24:00"
"https://www.sunoco.com","https://www.sunoco.com/find-a-station/station/2140002","Sunoco Retail Location #2140002","1949 SCHROCK ROAD","COLUMBUS","OH","43229","US","2140002","6148913955","Sunoco Gas Stations","40.107124","-82.963401","05:30-22:00"
"https://www.sunoco.com","https://www.sunoco.com/find-a-station/station/4240024","Sunoco Retail Location #4240024","7616 E MAIN STREET","REYNOLDSBURG","OH","43068","US","4240024","<MISSING>","Sunoco Gas Stations","39.955642","-82.7946444","24hrs"
"https://www.sunoco.com","https://www.sunoco.com/find-a-station/station/2987238","Sunoco Retail Location #2987238","201 W. BRIDGE STREET","DUBLIN","OH","43017","US","2987238","6147269810","Sunoco Gas Stations","40.098972","-83.119156","06:00-22:00"
"https://www.sunoco.com","https://www.sunoco.com/find-a-station/station/3832672","Sunoco Retail Location #3832672","7700 KENNEDY RD","BLACKLICK","OH","43004","US","3832672","6148635743","Sunoco Gas Stations","40.005767","-82.790337","05:00-23:00"
"https://www.sunoco.com","https://www.sunoco.com/find-a-station/station/8509564","Sunoco Retail Location #8509564","150 SOUTH STATE ST. & WALNUT","WESTERVILLE","OH","43081","US","8509564","6147942673","Sunoco Gas Stations","40.122125","-82.929941","24hrs"
"https://www.sunoco.com","https://www.sunoco.com/find-a-station/station/3716370","Sunoco Retail Location #3716370","6997 HARRISBURG PIKE","ORIENT","OH","43146","US","3716370","6148753697","Sunoco Gas Stations","39.826228","-83.140381","24hrs"
"https://www.sunoco.com","https://www.sunoco.com/find-a-station/station/3879673","Sunoco Retail Location #3879673","501 WEST WATERLOO","CANELWINCHESTER","OH","43110","US","3879673","6148372962","Sunoco Gas Stations","39.852853","-82.818722","05:00-23:00"
"https://www.sunoco.com","https://www.sunoco.com/find-a-station/station/3646395","Sunoco Retail Location #3646395","5503 NORTON ROAD","GROVE CITY","OH","43123","US","3646395","6148771800","Sunoco Gas Stations","39.85398","-83.18774","24hrs"
